[
    {
        "id": 1,
        "name": "أم القرى",
        "lat": "21.40119860",
        "lng": "39.81693040",
        "user_type": "entity"
    },
    {
        "id": 2,
        "name": "مركز الخدمة 2371",
        "lat": "21.39998992",
        "lng": "39.81631349",
        "user_type": "entity"
    },
    {
        "id": 3,
        "name": "مركز الخدمة 13584",
        "lat": "21.39551471",
        "lng": "39.81558393",
        "user_type": "entity"
    },
    {
        "id": 4,
        "name": "مركز الخدمة 304",
        "lat": "21.40000990",
        "lng": "39.81631752",
        "user_type": "entity"
    },
    {
        "id": 5,
        "name": "مركز الخدمة 824",
        "lat": "21.40125958",
        "lng": "39.81925320",
        "user_type": "entity"
    },
    {
        "id": 6,
        "name": "باب السلام إسكائى إيار أوئز",
        "lat": "21.40014725",
        "lng": "39.81890987",
        "user_type": "entity"
    },
    {
        "id": 7,
        "name": "مركز الخدمة 13585",
        "lat": "21.39607412",
        "lng": "39.81627058",
        "user_type": "entity"
    },
    {
        "id": 8,
        "name": "مركز الخدمة 2114",
        "lat": "21.40126852",
        "lng": "39.81815885",
        "user_type": "entity"
    },
    {
        "id": 9,
        "name": "لـيمـا ترافل اجنسى ",
        "lat": "21.40014725",
        "lng": "39.81890987",
        "user_type": "entity"
    },
    {
        "id": 10,
        "name": "صفا ترافلس اند تيوريزم",
        "lat": "21.39791216",
        "lng": "39.81506895",
        "user_type": "entity"
    },
    {
        "id": 11,
        "name": "مقام إبراهيم",
        "lat": "21.40127851",
        "lng": "39.81673728",
        "user_type": "entity"
    },
    {
        "id": 12,
        "name": "نور إى مكة مدينة حج سرفيس",
        "lat": "21.40014725",
        "lng": "39.81890987",
        "user_type": "entity"
    },
    {
        "id": 13,
        "name": "مركز الخدمة 13013",
        "lat": "21.39925072",
        "lng": "39.81705378",
        "user_type": "entity"
    },
    {
        "id": 14,
        "name": "وكالة الدعوة للسفريات",
        "lat": "21.40127851",
        "lng": "39.81673728",
        "user_type": "entity"
    },
    {
        "id": 15,
        "name": "با سيفيك ورلد تورس ايند تراويلس",
        "lat": "21.40015973",
        "lng": "39.81784772",
        "user_type": "entity"
    },
    {
        "id": 16,
        "name": "مركز الخدمة 12593",
        "lat": "21.39925571",
        "lng": "39.81682848",
        "user_type": "entity"
    },
    {
        "id": 17,
        "name": "وكالة مكة للسفريات",
        "lat": "21.40127851",
        "lng": "39.81673728",
        "user_type": "entity"
    },
    {
        "id": 18,
        "name": "كيرير لاين ترافل كونسالتانت",
        "lat": "21.40015973",
        "lng": "39.81784772",
        "user_type": "entity"
    },
    {
        "id": 19,
        "name": "مركز الخدمة 12593",
        "lat": "21.39925571",
        "lng": "39.81682848",
        "user_type": "entity"
    },
    {
        "id": 20,
        "name": "مركز الخدمة 1641",
        "lat": "21.40138839",
        "lng": "39.81896888",
        "user_type": "entity"
    },
    {
        "id": 21,
        "name": "السعادة  تنزيل إيارسرفيس",
        "lat": "21.40015973",
        "lng": "39.81784772",
        "user_type": "entity"
    },
    {
        "id": 22,
        "name": "مركز الخدمة 6343",
        "lat": "21.39960908",
        "lng": "39.81776055",
        "user_type": "entity"
    },
    {
        "id": 23,
        "name": "مركز الخدمة 9645",
        "lat": "21.40138839",
        "lng": "39.81461834",
        "user_type": "entity"
    },
    {
        "id": 24,
        "name": "السعادة/إفارست تورس اند ترافلس",
        "lat": "21.39974269",
        "lng": "39.81886159",
        "user_type": "entity"
    },
    {
        "id": 25,
        "name": "جوناكي انترناشيونال لميتد",
        "lat": "21.40015973",
        "lng": "39.81784772",
        "user_type": "entity"
    },
    {
        "id": 26,
        "name": "المقتدر منظم خاصة محدودة",
        "lat": "21.40143834",
        "lng": "39.81872212",
        "user_type": "entity"
    },
    {
        "id": 27,
        "name": "داكا إيار إفيئشون سرفيس",
        "lat": "21.39974269",
        "lng": "39.81886159",
        "user_type": "entity"
    },
    {
        "id": 28,
        "name": "سيوت بنغال حج سرفيس",
        "lat": "21.40015973",
        "lng": "39.81784772",
        "user_type": "entity"
    },
    {
        "id": 29,
        "name": "الواسي منزم الخاصة المحدودة",
        "lat": "21.40143834",
        "lng": "39.81872212",
        "user_type": "entity"
    },
    {
        "id": 30,
        "name": "سيوت بنغال حج سرفيس",
        "lat": "21.39974269",
        "lng": "39.81886159",
        "user_type": "entity"
    },
    {
        "id": 31,
        "name": "مركز الخدمة 4",
        "lat": "21.40149328",
        "lng": "39.81637250",
        "user_type": "entity"
    },
    {
        "id": 32,
        "name": "وكالة تلبية",
        "lat": "21.40030957",
        "lng": "39.81541227",
        "user_type": "entity"
    },
    {
        "id": 33,
        "name": "فاطمة تورس اند ترافلس حج سرفيس",
        "lat": "21.39974269",
        "lng": "39.81886159",
        "user_type": "entity"
    },
    {
        "id": 34,
        "name": "مركز الخدمة 9444",
        "lat": "21.40169805",
        "lng": "39.81472563",
        "user_type": "entity"
    },
    {
        "id": 35,
        "name": "مركز الخدمة 5161",
        "lat": "21.40034703",
        "lng": "39.81737297",
        "user_type": "entity"
    },
    {
        "id": 36,
        "name": "مبرور ترافلس",
        "lat": "21.39974269",
        "lng": "39.81886159",
        "user_type": "entity"
    },
    {
        "id": 37,
        "name": "مركز الخدمة 12016",
        "lat": "21.40175799",
        "lng": "39.81483828",
        "user_type": "entity"
    },
    {
        "id": 38,
        "name": "الموده للسفريات",
        "lat": "21.40042195",
        "lng": "39.81862824",
        "user_type": "entity"
    },
    {
        "id": 39,
        "name": "ميهومان ترافلس اند تورس",
        "lat": "21.39974269",
        "lng": "39.81886159",
        "user_type": "entity"
    },
    {
        "id": 40,
        "name": "الطيارة ترابلس انترناشونال",
        "lat": "21.40053433",
        "lng": "39.81821786",
        "user_type": "entity"
    },
    {
        "id": 41,
        "name": "مركز الخدمة 13647",
        "lat": "21.40175799",
        "lng": "39.81562417",
        "user_type": "entity"
    },
    {
        "id": 42,
        "name": "مركز الخدمة 9661",
        "lat": "21.39974643",
        "lng": "39.81669906",
        "user_type": "entity"
    },
    {
        "id": 43,
        "name": "باب السلام إسكائى إيار أوئز",
        "lat": "21.40053433",
        "lng": "39.81821786",
        "user_type": "entity"
    },
    {
        "id": 44,
        "name": "وكالة مكة للسفريات",
        "lat": "21.40180793",
        "lng": "39.81672119",
        "user_type": "entity"
    },
    {
        "id": 45,
        "name": "مركز الخدمة 12762",
        "lat": "21.39976017",
        "lng": "39.81888976",
        "user_type": "entity"
    },
    {
        "id": 46,
        "name": "سكائى لائن ترافلس انترناشيونال",
        "lat": "21.40053433",
        "lng": "39.81821786",
        "user_type": "entity"
    },
    {
        "id": 47,
        "name": "الإتقان ترافل إنترنيشونال",
        "lat": "21.39998992",
        "lng": "39.81635641",
        "user_type": "entity"
    },
    {
        "id": 48,
        "name": "مركز الخدمة 6604",
        "lat": "21.40188784",
        "lng": "39.81627058",
        "user_type": "entity"
    },
    {
        "id": 49,
        "name": "سلامت حج ترافلس اند تورس",
        "lat": "21.40053433",
        "lng": "39.81821786",
        "user_type": "entity"
    },
    {
        "id": 50,
        "name": "مركز الخدمة 1030",
        "lat": "21.40192280",
        "lng": "39.81779944",
        "user_type": "entity"
    },
    {
        "id": 51,
        "name": "سنبلاوار ايار لكناس",
        "lat": "21.39998992",
        "lng": "39.81635641",
        "user_type": "entity"
    },
    {
        "id": 52,
        "name": "مركز الخدمة 14209",
        "lat": "21.40197774",
        "lng": "39.81805157",
        "user_type": "entity"
    },
    {
        "id": 53,
        "name": "شريف تورس اند ترافلس",
        "lat": "21.39998992",
        "lng": "39.81635641",
        "user_type": "entity"
    },
    {
        "id": 54,
        "name": "م/إس غلوبال تورس إند ترافلس",
        "lat": "21.40053433",
        "lng": "39.81821786",
        "user_type": "entity"
    },
    {
        "id": 55,
        "name": "مركز الخدمة 11",
        "lat": "21.40222747",
        "lng": "39.81764387",
        "user_type": "entity"
    },
    {
        "id": 56,
        "name": "معصوم إيار ترافلس",
        "lat": "21.40053433",
        "lng": "39.81821786",
        "user_type": "entity"
    },
    {
        "id": 57,
        "name": "ميديا ترابلس سرفيسس لمتيد",
        "lat": "21.39998992",
        "lng": "39.81635641",
        "user_type": "entity"
    },
    {
        "id": 58,
        "name": "ساوث اسيا لخدمات الحج وعمره",
        "lat": "21.40224745",
        "lng": "39.81528889",
        "user_type": "entity"
    },
    {
        "id": 59,
        "name": "الموده للسفريات",
        "lat": "21.40053433",
        "lng": "39.81778871",
        "user_type": "entity"
    },
    {
        "id": 60,
        "name": "بلميا فوياج",
        "lat": "21.39998992",
        "lng": "39.81635641",
        "user_type": "entity"
    },
    {
        "id": 61,
        "name": "مقدس تورز ايند ترافيلس",
        "lat": "21.40224745",
        "lng": "39.81528889",
        "user_type": "entity"
    },
    {
        "id": 62,
        "name": "باماكو فوياج",
        "lat": "21.40053433",
        "lng": "39.81778871",
        "user_type": "entity"
    },
    {
        "id": 63,
        "name": "مبرور يار ترافلس",
        "lat": "21.39998992",
        "lng": "39.81631349",
        "user_type": "entity"
    },
    {
        "id": 64,
        "name": "مركز الخدمة 14249",
        "lat": "21.40246721",
        "lng": "39.81841635",
        "user_type": "entity"
    },
    {
        "id": 65,
        "name": "مركز الخدمة 10153",
        "lat": "21.40053433",
        "lng": "39.81778871",
        "user_type": "entity"
    },
    {
        "id": 66,
        "name": "مسافر ترافلس لميتد",
        "lat": "21.39998992",
        "lng": "39.81631349",
        "user_type": "entity"
    },
    {
        "id": 67,
        "name": "وكالة سلامة",
        "lat": "21.41437358",
        "lng": "39.81609892",
        "user_type": "entity"
    },
    {
        "id": 68,
        "name": "عبد تالعزيز ترافلس اند تيوريظم",
        "lat": "21.40054931",
        "lng": "39.81712889",
        "user_type": "entity"
    },
    {
        "id": 69,
        "name": "منتقا تورس اند ترافلس",
        "lat": "21.39998992",
        "lng": "39.81631349",
        "user_type": "entity"
    },
    {
        "id": 70,
        "name": "مركز الخدمة 273",
        "lat": "0.00000000",
        "lng": "0.00000000",
        "user_type": "entity"
    },
    {
        "id": 71,
        "name": "سعد وسوى ترافلس اند تورس",
        "lat": "21.40056929",
        "lng": "39.81625985",
        "user_type": "entity"
    },
    {
        "id": 72,
        "name": "فلاي سون إنترل ترافل إيجينسي",
        "lat": "21.40056929",
        "lng": "39.81625985",
        "user_type": "entity"
    },
    {
        "id": 73,
        "name": "الإمام حج قافلة ترافلس إند تورس",
        "lat": "0.00000000",
        "lng": "0.00000000",
        "user_type": "entity"
    },
    {
        "id": 74,
        "name": "كوكس بازار اوفرسيز",
        "lat": "21.40056929",
        "lng": "39.81625985",
        "user_type": "entity"
    },
    {
        "id": 75,
        "name": "ذى النورين ترافلس",
        "lat": "0.00000000",
        "lng": "0.00000000",
        "user_type": "entity"
    },
    {
        "id": 76,
        "name": "مبلغ ترابلس",
        "lat": "21.40056929",
        "lng": "39.81625985",
        "user_type": "entity"
    },
    {
        "id": 77,
        "name": "شهداء ترافلس اند تورس",
        "lat": "0.00000000",
        "lng": "0.00000000",
        "user_type": "entity"
    },
    {
        "id": 78,
        "name": "ميهومان ترافلس اند تورس",
        "lat": "21.40056929",
        "lng": "39.81625985",
        "user_type": "entity"
    },
    {
        "id": 79,
        "name": "فارفيكت ترافلس",
        "lat": "0.00000000",
        "lng": "0.00000000",
        "user_type": "entity"
    },
    {
        "id": 80,
        "name": "وحيـد ترافلس",
        "lat": "21.40056929",
        "lng": "39.81625985",
        "user_type": "entity"
    },
    {
        "id": 81,
        "name": "ميهومان ترافلس اند تورس",
        "lat": "0.00000000",
        "lng": "0.00000000",
        "user_type": "entity"
    },
    {
        "id": 82,
        "name": "مركز الخدمة 11345",
        "lat": "21.39631387",
        "lng": "39.87480711",
        "user_type": "entity"
    },
    {
        "id": 83,
        "name": "مركز الخدمة 210",
        "lat": "21.40062922",
        "lng": "39.81695722",
        "user_type": "entity"
    },
    {
        "id": 84,
        "name": "مركز الخدمة 7848",
        "lat": "21.39539484",
        "lng": "39.87504314",
        "user_type": "entity"
    },
    {
        "id": 85,
        "name": "آدم الدولية",
        "lat": "21.39643873",
        "lng": "39.87534087",
        "user_type": "entity"
    },
    {
        "id": 86,
        "name": "مركز الخدمة 14426",
        "lat": "21.39779479",
        "lng": "39.87731497",
        "user_type": "entity"
    },
    {
        "id": 87,
        "name": "مركز الخدمة 13581",
        "lat": "21.40076907",
        "lng": "39.81823396",
        "user_type": "entity"
    },
    {
        "id": 88,
        "name": "الادم لخدمة الحج الخاصة المحدودة",
        "lat": "21.39643873",
        "lng": "39.87534087",
        "user_type": "entity"
    },
    {
        "id": 89,
        "name": "الحرمين لخدمات الحجاج",
        "lat": "21.39590430",
        "lng": "39.87757515",
        "user_type": "entity"
    },
    {
        "id": 90,
        "name": "مركز الخدمة 10",
        "lat": "21.40077032",
        "lng": "39.81632154",
        "user_type": "entity"
    },
    {
        "id": 91,
        "name": "الصفا لخدمة الحجاج",
        "lat": "21.39643873",
        "lng": "39.87534087",
        "user_type": "entity"
    },
    {
        "id": 92,
        "name": "فلائيويز ترافيلس",
        "lat": "21.39590430",
        "lng": "39.87757515",
        "user_type": "entity"
    },
    {
        "id": 93,
        "name": "مركز الخدمة 4670",
        "lat": "21.40087146",
        "lng": "39.81406580",
        "user_type": "entity"
    },
    {
        "id": 94,
        "name": "مكتب سليم خدمة الحج والعمرة",
        "lat": "21.39643873",
        "lng": "39.87534087",
        "user_type": "entity"
    },
    {
        "id": 95,
        "name": "سفريات اف انت اف",
        "lat": "21.39590430",
        "lng": "39.87757515",
        "user_type": "entity"
    },
    {
        "id": 96,
        "name": "إس إس انترناشيونال",
        "lat": "21.40094887",
        "lng": "39.81695722",
        "user_type": "entity"
    },
    {
        "id": 97,
        "name": "مكه  جعفر  تورس و ترافلص",
        "lat": "21.39643873",
        "lng": "39.87534087",
        "user_type": "entity"
    },
    {
        "id": 98,
        "name": "مركز الخدمة 6256",
        "lat": "21.39431597",
        "lng": "39.87778972",
        "user_type": "entity"
    },
    {
        "id": 99,
        "name": "انتر غلف ترابلس المحدودة",
        "lat": "21.40094887",
        "lng": "39.81695722",
        "user_type": "entity"
    },
    {
        "id": 100,
        "name": "مركز الخدمة 906",
        "lat": "21.39370661",
        "lng": "39.87540792",
        "user_type": "entity"
    },
    {
        "id": 101,
        "name": "مركز الخدمة 14466",
        "lat": "21.39388642",
        "lng": "39.87905573",
        "user_type": "entity"
    },
    {
        "id": 102,
        "name": "باب السلام إسكائى إيار أوئز",
        "lat": "21.40094887",
        "lng": "39.81695722",
        "user_type": "entity"
    },
    {
        "id": 103,
        "name": "مركز الخدمة 15103",
        "lat": "21.40037450",
        "lng": "39.87544011",
        "user_type": "entity"
    },
    {
        "id": 104,
        "name": "مركز الخدمة 8014",
        "lat": "21.39347685",
        "lng": "39.87994756",
        "user_type": "entity"
    },
    {
        "id": 105,
        "name": "رشا شارا اوفرسيس",
        "lat": "21.40094887",
        "lng": "39.81695722",
        "user_type": "entity"
    },
    {
        "id": 106,
        "name": "مركز الخدمة 12028",
        "lat": "21.39655361",
        "lng": "39.87549375",
        "user_type": "entity"
    },
    {
        "id": 107,
        "name": "مركز الخدمة 7961",
        "lat": "21.40096100",
        "lng": "39.81775630",
        "user_type": "entity"
    },
    {
        "id": 108,
        "name": "مركز الخدمة 8629",
        "lat": "21.39540483",
        "lng": "39.87995695",
        "user_type": "entity"
    },
    {
        "id": 109,
        "name": "مركز الخدمة 11584",
        "lat": "21.39494032",
        "lng": "39.87653445",
        "user_type": "entity"
    },
    {
        "id": 110,
        "name": "مركز الخدمة 1665",
        "lat": "21.40096386",
        "lng": "39.81551151",
        "user_type": "entity"
    },
    {
        "id": 111,
        "name": "جلوبل تور اند ترافلز",
        "lat": "21.39915083",
        "lng": "39.88236021",
        "user_type": "entity"
    },
    {
        "id": 112,
        "name": "مركز الخدمة 8840",
        "lat": "21.39611408",
        "lng": "39.87665247",
        "user_type": "entity"
    },
    {
        "id": 113,
        "name": "مركز الخدمة 1228",
        "lat": "21.40098383",
        "lng": "39.81551956",
        "user_type": "entity"
    },
    {
        "id": 114,
        "name": "شركة روماني انتربرايزز",
        "lat": "21.39915083",
        "lng": "39.88236021",
        "user_type": "entity"
    },
    {
        "id": 115,
        "name": "مركز الخدمة 8846",
        "lat": "21.39629389",
        "lng": "39.87667393",
        "user_type": "entity"
    },
    {
        "id": 116,
        "name": "مركز الخدمة 1009",
        "lat": "21.40107873",
        "lng": "39.81587361",
        "user_type": "entity"
    },
    {
        "id": 117,
        "name": "الأمين أحسن للسياحة",
        "lat": "21.39915083",
        "lng": "39.88236021",
        "user_type": "entity"
    },
    {
        "id": 118,
        "name": "مركز الخدمة 8830",
        "lat": "21.39632386",
        "lng": "39.87677049",
        "user_type": "entity"
    },
    {
        "id": 119,
        "name": "شركة فلاويل للسفر",
        "lat": "21.39915083",
        "lng": "39.88236021",
        "user_type": "entity"
    },
    {
        "id": 120,
        "name": "مركز الخدمة 2112",
        "lat": "21.40114865",
        "lng": "39.81824468",
        "user_type": "entity"
    },
    {
        "id": 121,
        "name": "مركز الخدمة 15138",
        "lat": "21.39915083",
        "lng": "39.88236021",
        "user_type": "entity"
    },
    {
        "id": 122,
        "name": "باب السلام إسكائى إيار أوئز",
        "lat": "21.40118861",
        "lng": "39.81687139",
        "user_type": "entity"
    },
    {
        "id": 123,
        "name": "إم.بي.اس للحج والسياحة",
        "lat": "21.39446582",
        "lng": "39.88384615",
        "user_type": "entity"
    },
    {
        "id": 124,
        "name": "تيستا إيار ترافلس",
        "lat": "21.40118861",
        "lng": "39.81687139",
        "user_type": "entity"
    },
    {
        "id": 125,
        "name": "مركز الخدمة 14441",
        "lat": "21.40003487",
        "lng": "39.87991403",
        "user_type": "entity"
    },
    {
        "id": 126,
        "name": "مصر الجميلة ترافيل",
        "lat": "21.39841162",
        "lng": "39.88635134",
        "user_type": "entity"
    },
    {
        "id": 127,
        "name": "عباد الرحمن",
        "lat": "21.40003487",
        "lng": "39.87991403",
        "user_type": "entity"
    },
    {
        "id": 128,
        "name": "فيار أويز ترافلس",
        "lat": "21.40118861",
        "lng": "39.81687139",
        "user_type": "entity"
    },
    {
        "id": 129,
        "name": "أيوب منظم الخاصة المحدودة",
        "lat": "21.40003487",
        "lng": "39.87991403",
        "user_type": "entity"
    },
    {
        "id": 130,
        "name": "ميديا ترابلس سرفيسس لمتيد",
        "lat": "21.40118861",
        "lng": "39.81687139",
        "user_type": "entity"
    },
    {
        "id": 131,
        "name": "شركة البرج العالمية",
        "lat": "21.40003487",
        "lng": "39.87991403",
        "user_type": "entity"
    },
    {
        "id": 132,
        "name": "مركز الخدمة 999",
        "lat": "21.40118861",
        "lng": "39.81612038",
        "user_type": "entity"
    },
    {
        "id": 133,
        "name": "نيو سيمفونى للسياحة",
        "lat": "21.39841162",
        "lng": "39.88635134",
        "user_type": "entity"
    },
    {
        "id": 134,
        "name": "وكالة كوبا للسفريات",
        "lat": "21.40294668",
        "lng": "39.81858801",
        "user_type": "entity"
    },
    {
        "id": 135,
        "name": "المأمون منظم خاصة محدودة",
        "lat": "21.40254462",
        "lng": "39.87997304",
        "user_type": "entity"
    },
    {
        "id": 136,
        "name": "مركز الخدمة 2113",
        "lat": "21.40118861",
        "lng": "39.81815885",
        "user_type": "entity"
    },
    {
        "id": 137,
        "name": "وايت بالاس للسياحه",
        "lat": "21.39841162",
        "lng": "39.88635134",
        "user_type": "entity"
    },
    {
        "id": 138,
        "name": "وكالة نيورو ساحل",
        "lat": "21.40294668",
        "lng": "39.81858801",
        "user_type": "entity"
    },
    {
        "id": 139,
        "name": "ضيوف البيت لخدمات الحجاج",
        "lat": "21.40082651",
        "lng": "39.88037537",
        "user_type": "entity"
    },
    {
        "id": 140,
        "name": "وزارة الدفاع",
        "lat": "21.39841162",
        "lng": "39.88635134",
        "user_type": "entity"
    },
    {
        "id": 141,
        "name": "مركز الخدمة 1086",
        "lat": "21.41051560",
        "lng": "39.81880795",
        "user_type": "entity"
    },
    {
        "id": 142,
        "name": "رفاد لخدمات الحجاج",
        "lat": "21.40025713",
        "lng": "39.88162528",
        "user_type": "entity"
    },
    {
        "id": 143,
        "name": "أكبر أوفرسيس",
        "lat": "21.41029835",
        "lng": "39.81884550",
        "user_type": "entity"
    },
    {
        "id": 144,
        "name": "مركز الخدمة 12910",
        "lat": "21.39631387",
        "lng": "39.88685559",
        "user_type": "entity"
    },
    {
        "id": 145,
        "name": "شركة فلاويل للسفر",
        "lat": "21.40249717",
        "lng": "39.88239776",
        "user_type": "entity"
    },
    {
        "id": 146,
        "name": "الطيارة ترابلس انترناشونال",
        "lat": "21.41029835",
        "lng": "39.81884550",
        "user_type": "entity"
    },
    {
        "id": 147,
        "name": "مركز الخدمة 12875",
        "lat": "21.39615404",
        "lng": "39.88703798",
        "user_type": "entity"
    },
    {
        "id": 148,
        "name": "مركز الخدمة 14055",
        "lat": "21.39964155",
        "lng": "39.88334391",
        "user_type": "entity"
    },
    {
        "id": 149,
        "name": "مركز الخدمة 12950",
        "lat": "21.39605414",
        "lng": "39.88730620",
        "user_type": "entity"
    },
    {
        "id": 150,
        "name": "الوكالة المالية للخدمات الجوية المحدودة",
        "lat": "21.41031084",
        "lng": "39.81943827",
        "user_type": "entity"
    },
    {
        "id": 151,
        "name": "دار السلام للتجارة العامة المحدودة",
        "lat": "21.39964155",
        "lng": "39.88334391",
        "user_type": "entity"
    },
    {
        "id": 152,
        "name": "مركز الخدمة 15312",
        "lat": "21.39750260",
        "lng": "39.88751005",
        "user_type": "entity"
    },
    {
        "id": 153,
        "name": "ألاش تورس اند ترافلس",
        "lat": "21.41059750",
        "lng": "39.81975182",
        "user_type": "entity"
    },
    {
        "id": 154,
        "name": "شركة مكه للإنشاء والتعمير",
        "lat": "21.39863139",
        "lng": "39.87566542",
        "user_type": "entity"
    },
    {
        "id": 155,
        "name": "وكالة القبلة للحج والعمرة",
        "lat": "21.39964155",
        "lng": "39.88334391",
        "user_type": "entity"
    },
    {
        "id": 156,
        "name": "بركة للسفر والسياحة",
        "lat": "21.39609909",
        "lng": "39.88759052",
        "user_type": "entity"
    },
    {
        "id": 157,
        "name": "اسمارت ترابلس",
        "lat": "21.41059750",
        "lng": "39.81975182",
        "user_type": "entity"
    },
    {
        "id": 158,
        "name": "مركز الخدمة 13151",
        "lat": "21.40053120",
        "lng": "39.87579684",
        "user_type": "entity"
    },
    {
        "id": 159,
        "name": "مركز الخدمة 14055",
        "lat": "21.39964155",
        "lng": "39.88334391",
        "user_type": "entity"
    },
    {
        "id": 160,
        "name": "ضيوف البيت لخدمات الحجاج",
        "lat": "21.39693820",
        "lng": "39.88836836",
        "user_type": "entity"
    },
    {
        "id": 161,
        "name": "الإخوان ترافلس إند تورس",
        "lat": "21.41059750",
        "lng": "39.81975182",
        "user_type": "entity"
    },
    {
        "id": 162,
        "name": "مركز الخدمة 14650",
        "lat": "21.39375656",
        "lng": "39.87615358",
        "user_type": "entity"
    },
    {
        "id": 163,
        "name": "مركز الخدمة 14055",
        "lat": "21.39964155",
        "lng": "39.88334391",
        "user_type": "entity"
    },
    {
        "id": 164,
        "name": "ضيوف البيت لخدمات الحجاج",
        "lat": "21.39335697",
        "lng": "39.89546012",
        "user_type": "entity"
    },
    {
        "id": 165,
        "name": "باماكو فوياج",
        "lat": "21.41059750",
        "lng": "39.81975182",
        "user_type": "entity"
    },
    {
        "id": 166,
        "name": "مركز الخدمة 13929",
        "lat": "21.40028585",
        "lng": "39.88360609",
        "user_type": "entity"
    },
    {
        "id": 167,
        "name": "مركز الخدمة 13524",
        "lat": "21.39663353",
        "lng": "39.87626623",
        "user_type": "entity"
    },
    {
        "id": 168,
        "name": "تروبيك للسفريات",
        "lat": "21.41059750",
        "lng": "39.81975182",
        "user_type": "entity"
    },
    {
        "id": 169,
        "name": "اكستريم للسياحه",
        "lat": "21.39321712",
        "lng": "39.89547085",
        "user_type": "entity"
    },
    {
        "id": 170,
        "name": "خدمة العوام لخدمات الحجاج",
        "lat": "21.39990501",
        "lng": "39.88438796",
        "user_type": "entity"
    },
    {
        "id": 171,
        "name": "وكالة الفتح",
        "lat": "21.41059750",
        "lng": "39.81975182",
        "user_type": "entity"
    },
    {
        "id": 172,
        "name": "مركز الخدمة 8598",
        "lat": "21.39521503",
        "lng": "39.87654518",
        "user_type": "entity"
    },
    {
        "id": 173,
        "name": "المازن للسياحة",
        "lat": "21.39321712",
        "lng": "39.89547085",
        "user_type": "entity"
    },
    {
        "id": 174,
        "name": "مركز الخدمة 2215",
        "lat": "21.41008860",
        "lng": "39.81985401",
        "user_type": "entity"
    },
    {
        "id": 175,
        "name": "المكة حج سرفيس",
        "lat": "21.39974518",
        "lng": "39.88464009",
        "user_type": "entity"
    },
    {
        "id": 176,
        "name": "بيلدر للسياحة",
        "lat": "21.39321712",
        "lng": "39.89547085",
        "user_type": "entity"
    },
    {
        "id": 177,
        "name": "مركز الخدمة 15095",
        "lat": "21.39339693",
        "lng": "39.87654786",
        "user_type": "entity"
    },
    {
        "id": 178,
        "name": "مركز الخدمة 14560",
        "lat": "21.40174800",
        "lng": "39.82019733",
        "user_type": "entity"
    },
    {
        "id": 179,
        "name": "تريتشي سنشاين لخدمات الحج",
        "lat": "21.39974518",
        "lng": "39.88464009",
        "user_type": "entity"
    },
    {
        "id": 180,
        "name": "مزارات للسياحة",
        "lat": "21.39321712",
        "lng": "39.89547085",
        "user_type": "entity"
    },
    {
        "id": 181,
        "name": "مركز الخدمة 7390",
        "lat": "21.39359672",
        "lng": "39.87660955",
        "user_type": "entity"
    },
    {
        "id": 182,
        "name": "أى شهارة إفبيوشون",
        "lat": "21.41070538",
        "lng": "39.82033681",
        "user_type": "entity"
    },
    {
        "id": 183,
        "name": "سلامت حج سروس",
        "lat": "21.39974518",
        "lng": "39.88464009",
        "user_type": "entity"
    },
    {
        "id": 184,
        "name": "مركز الخدمة 5516",
        "lat": "21.39399631",
        "lng": "39.87669538",
        "user_type": "entity"
    },
    {
        "id": 185,
        "name": "ناشيونال بيرو اوف ايجيبت",
        "lat": "21.39321712",
        "lng": "39.89547085",
        "user_type": "entity"
    },
    {
        "id": 186,
        "name": "مزمل الشركات",
        "lat": "21.39974518",
        "lng": "39.88464009",
        "user_type": "entity"
    },
    {
        "id": 187,
        "name": "اسمارت ترابلس",
        "lat": "21.41070538",
        "lng": "39.82033681",
        "user_type": "entity"
    },
    {
        "id": 188,
        "name": "مركز الخدمة 14413",
        "lat": "21.39562460",
        "lng": "39.87675439",
        "user_type": "entity"
    },
    {
        "id": 189,
        "name": "يم يس ورلد تراولس سرويس",
        "lat": "21.39974518",
        "lng": "39.88464009",
        "user_type": "entity"
    },
    {
        "id": 190,
        "name": "الإخوان ترافلس إند تورس",
        "lat": "21.40390561",
        "lng": "39.81858801",
        "user_type": "entity"
    },
    {
        "id": 191,
        "name": "رحمة للعالمين تورس إند ترافلس",
        "lat": "21.41070538",
        "lng": "39.82033681",
        "user_type": "entity"
    },
    {
        "id": 192,
        "name": "مركز الخدمة 14413",
        "lat": "21.39562460",
        "lng": "39.87675439",
        "user_type": "entity"
    },
    {
        "id": 193,
        "name": "الحسن تورس إند ترافلس",
        "lat": "21.40390561",
        "lng": "39.81858801",
        "user_type": "entity"
    },
    {
        "id": 194,
        "name": "مركز الخدمة 15350",
        "lat": "21.40062922",
        "lng": "39.88476347",
        "user_type": "entity"
    },
    {
        "id": 195,
        "name": "رييال انترناشونال",
        "lat": "21.41070538",
        "lng": "39.82033681",
        "user_type": "entity"
    },
    {
        "id": 196,
        "name": "شركة الراجحي للخدمات التجارية المساندة",
        "lat": "21.39562460",
        "lng": "39.87675439",
        "user_type": "entity"
    },
    {
        "id": 197,
        "name": "القطب حج ترافلس",
        "lat": "21.40390561",
        "lng": "39.81858801",
        "user_type": "entity"
    },
    {
        "id": 198,
        "name": "مركز الخدمة 13538",
        "lat": "21.40131847",
        "lng": "39.88516044",
        "user_type": "entity"
    },
    {
        "id": 199,
        "name": "سادمان ترافلس اند تورس",
        "lat": "21.41070538",
        "lng": "39.82033681",
        "user_type": "entity"
    },
    {
        "id": 200,
        "name": "مركز الخدمة 12436",
        "lat": "21.39671344",
        "lng": "39.87678121",
        "user_type": "entity"
    },
    {
        "id": 201,
        "name": "صفوان ترافلس اند تورس",
        "lat": "21.40390561",
        "lng": "39.81858801",
        "user_type": "entity"
    },
    {
        "id": 202,
        "name": "افيلابول ترافيل سيرفيس",
        "lat": "21.39841162",
        "lng": "39.88635134",
        "user_type": "entity"
    },
    {
        "id": 203,
        "name": "صالحية ترابلس إند تورس",
        "lat": "21.41070538",
        "lng": "39.82033681",
        "user_type": "entity"
    },
    {
        "id": 204,
        "name": "غرامين إيار انترناشيونال",
        "lat": "21.40390561",
        "lng": "39.81858801",
        "user_type": "entity"
    },
    {
        "id": 205,
        "name": "اكسيم تورز",
        "lat": "21.39841162",
        "lng": "39.88635134",
        "user_type": "entity"
    },
    {
        "id": 206,
        "name": "شركة الراجحي للخدمات التجارية المساندة",
        "lat": "21.39502523",
        "lng": "39.87688850",
        "user_type": "entity"
    },
    {
        "id": 207,
        "name": "فارفيكت ترافلس",
        "lat": "21.40390561",
        "lng": "39.81858801",
        "user_type": "entity"
    },
    {
        "id": 208,
        "name": "ضيوف الرحمن ترافلس",
        "lat": "21.41070538",
        "lng": "39.82033681",
        "user_type": "entity"
    },
    {
        "id": 209,
        "name": "أصفهان تورس أيند ترافيلس",
        "lat": "21.39595924",
        "lng": "39.87694751",
        "user_type": "entity"
    },
    {
        "id": 210,
        "name": "مسافر ترافلس لميتد",
        "lat": "21.41070538",
        "lng": "39.82033681",
        "user_type": "entity"
    },
    {
        "id": 211,
        "name": "كولومبيا ترابلس انترناشيونال",
        "lat": "21.40390561",
        "lng": "39.81858801",
        "user_type": "entity"
    },
    {
        "id": 212,
        "name": "الرواد للسياحة",
        "lat": "21.39841162",
        "lng": "39.88635134",
        "user_type": "entity"
    },
    {
        "id": 213,
        "name": "رباني تورس ايند ترافلس",
        "lat": "21.39595924",
        "lng": "39.87694751",
        "user_type": "entity"
    },
    {
        "id": 214,
        "name": "الحكيم منظم خاصة محدودة",
        "lat": "21.41070538",
        "lng": "39.82033681",
        "user_type": "entity"
    },
    {
        "id": 215,
        "name": "مشرف تورس اند ترافلس",
        "lat": "21.40390561",
        "lng": "39.81858801",
        "user_type": "entity"
    },
    {
        "id": 216,
        "name": "مؤسسة ديلوكس",
        "lat": "21.39595924",
        "lng": "39.87694751",
        "user_type": "entity"
    },
    {
        "id": 217,
        "name": "مركز الخدمة 12742",
        "lat": "21.41045817",
        "lng": "39.82133459",
        "user_type": "entity"
    },
    {
        "id": 218,
        "name": "نوردان تورس اند ترافلس لميتد",
        "lat": "21.40390561",
        "lng": "39.81858801",
        "user_type": "entity"
    },
    {
        "id": 219,
        "name": "مركز الخدمة 7052",
        "lat": "21.40046940",
        "lng": "39.87695288",
        "user_type": "entity"
    },
    {
        "id": 220,
        "name": "المحروسة للسياحة",
        "lat": "21.39841162",
        "lng": "39.88635134",
        "user_type": "entity"
    },
    {
        "id": 221,
        "name": "مركز الخدمة 13589",
        "lat": "21.39963031",
        "lng": "39.82260059",
        "user_type": "entity"
    },
    {
        "id": 222,
        "name": "مركز الخدمة 6013",
        "lat": "21.41042820",
        "lng": "39.81924247",
        "user_type": "entity"
    },
    {
        "id": 223,
        "name": "مركز الخدمة 8655",
        "lat": "21.39685080",
        "lng": "39.87703871",
        "user_type": "entity"
    },
    {
        "id": 224,
        "name": "المصطفى للسياحه",
        "lat": "21.39841162",
        "lng": "39.88635134",
        "user_type": "entity"
    },
    {
        "id": 225,
        "name": "اكسيلسيور ترابلس سرفيسز",
        "lat": "0.00000000",
        "lng": "0.00000000",
        "user_type": "entity"
    },
    {
        "id": 226,
        "name": "مركز الخدمة 1513",
        "lat": "21.40632290",
        "lng": "39.82180666",
        "user_type": "entity"
    },
    {
        "id": 227,
        "name": "رويال فالى للسياحة",
        "lat": "21.39841162",
        "lng": "39.88635134",
        "user_type": "entity"
    },
    {
        "id": 228,
        "name": "مركز الخدمة 14489",
        "lat": "21.39353679",
        "lng": "39.87709235",
        "user_type": "entity"
    },
    {
        "id": 229,
        "name": "كيا ترافلس",
        "lat": "0.00000000",
        "lng": "0.00000000",
        "user_type": "entity"
    },
    {
        "id": 230,
        "name": "أى شهارة إفبيوشون",
        "lat": "21.39759250",
        "lng": "39.81069158",
        "user_type": "entity"
    },
    {
        "id": 231,
        "name": "سى برنسيس للسياحة",
        "lat": "21.39841162",
        "lng": "39.88635134",
        "user_type": "entity"
    },
    {
        "id": 232,
        "name": "مركز الخدمة 8284",
        "lat": "21.39371660",
        "lng": "39.87768244",
        "user_type": "entity"
    },
    {
        "id": 233,
        "name": "نور حج ترافلس اند تورس",
        "lat": "0.00000000",
        "lng": "0.00000000",
        "user_type": "entity"
    },
    {
        "id": 234,
        "name": "فيار أويز ترافلس",
        "lat": "21.39759250",
        "lng": "39.81069158",
        "user_type": "entity"
    },
    {
        "id": 235,
        "name": "قرطبه",
        "lat": "21.39841162",
        "lng": "39.88635134",
        "user_type": "entity"
    },
    {
        "id": 236,
        "name": "مركز الخدمة 13827",
        "lat": "21.39935186",
        "lng": "39.87778570",
        "user_type": "entity"
    },
    {
        "id": 237,
        "name": "مركز الخدمة 4835",
        "lat": "21.40333125",
        "lng": "39.81611769",
        "user_type": "entity"
    },
    {
        "id": 238,
        "name": "مشاري فالح المطيري",
        "lat": "21.42196439",
        "lng": "39.82682775",
        "user_type": "entity"
    },
    {
        "id": 239,
        "name": "مركز الخدمة 8873",
        "lat": "21.39765619",
        "lng": "39.87806867",
        "user_type": "entity"
    },
    {
        "id": 240,
        "name": "ايلاف تورس وتراويلس",
        "lat": "21.40373580",
        "lng": "39.81626790",
        "user_type": "entity"
    },
    {
        "id": 241,
        "name": "مركز الخدمة 11350",
        "lat": "21.39426603",
        "lng": "39.87474274",
        "user_type": "entity"
    },
    {
        "id": 242,
        "name": "شركة اثراء الخير لخدمات الحجاج",
        "lat": "21.40057928",
        "lng": "39.87824034",
        "user_type": "entity"
    },
    {
        "id": 243,
        "name": "حكمة ترافل",
        "lat": "21.40373580",
        "lng": "39.81626790",
        "user_type": "entity"
    },
    {
        "id": 244,
        "name": "مركز الخدمة 14431",
        "lat": "21.39353679",
        "lng": "39.87481247",
        "user_type": "entity"
    },
    {
        "id": 245,
        "name": "مركز الخدمة 10623",
        "lat": "21.39742768",
        "lng": "39.87840663",
        "user_type": "entity"
    },
    {
        "id": 246,
        "name": "مركز الخدمة 3827",
        "lat": "21.40467475",
        "lng": "39.81714498",
        "user_type": "entity"
    },
    {
        "id": 247,
        "name": "مركز الخدمة 11859",
        "lat": "21.40001239",
        "lng": "39.87482588",
        "user_type": "entity"
    },
    {
        "id": 248,
        "name": "مركز الخدمة 13080",
        "lat": "21.39505520",
        "lng": "39.87983893",
        "user_type": "entity"
    },
    {
        "id": 249,
        "name": "مركز الخدمة 8805",
        "lat": "21.40505932",
        "lng": "39.81719326",
        "user_type": "entity"
    },
    {
        "id": 250,
        "name": "مركز الخدمة 15210",
        "lat": "21.39356676",
        "lng": "39.87846564",
        "user_type": "entity"
    },
    {
        "id": 251,
        "name": "مركز الخدمة 12979",
        "lat": "21.39559463",
        "lng": "39.87489294",
        "user_type": "entity"
    },
    {
        "id": 252,
        "name": "مركز الخدمة 1630",
        "lat": "21.40334124",
        "lng": "39.81730591",
        "user_type": "entity"
    },
    {
        "id": 253,
        "name": "مركز الخدمة 10622",
        "lat": "21.39854299",
        "lng": "39.87987112",
        "user_type": "entity"
    },
    {
        "id": 254,
        "name": "مركز الخدمة 4196",
        "lat": "21.39903096",
        "lng": "39.87892698",
        "user_type": "entity"
    },
    {
        "id": 255,
        "name": "مركز الخدمة 7307",
        "lat": "21.39663353",
        "lng": "39.87497877",
        "user_type": "entity"
    },
    {
        "id": 256,
        "name": "مركز الخدمة 8962",
        "lat": "21.39535488",
        "lng": "39.87987112",
        "user_type": "entity"
    },
    {
        "id": 257,
        "name": "مركز الخدمة 13541",
        "lat": "21.39416613",
        "lng": "39.87900208",
        "user_type": "entity"
    },
    {
        "id": 258,
        "name": "مركز الخدمة 14449",
        "lat": "21.40533651",
        "lng": "39.81745477",
        "user_type": "entity"
    },
    {
        "id": 259,
        "name": "مركز الخدمة 1139",
        "lat": "21.39679336",
        "lng": "39.87497877",
        "user_type": "entity"
    },
    {
        "id": 260,
        "name": "مركز الخدمة 12953",
        "lat": "21.39887113",
        "lng": "39.87995695",
        "user_type": "entity"
    },
    {
        "id": 261,
        "name": "مركز الخدمة 14506",
        "lat": "21.40272692",
        "lng": "39.81763314",
        "user_type": "entity"
    },
    {
        "id": 262,
        "name": "مركز الخدمة 8019",
        "lat": "21.39600419",
        "lng": "39.87911071",
        "user_type": "entity"
    },
    {
        "id": 263,
        "name": "مركز الخدمة 14499",
        "lat": "21.39487289",
        "lng": "39.87499755",
        "user_type": "entity"
    },
    {
        "id": 264,
        "name": "مركز الخدمة 14585",
        "lat": "21.39465562",
        "lng": "39.87998377",
        "user_type": "entity"
    },
    {
        "id": 265,
        "name": "مركز الخدمة 14586",
        "lat": "21.40629293",
        "lng": "39.81771361",
        "user_type": "entity"
    },
    {
        "id": 266,
        "name": "مركز الخدمة 13396",
        "lat": "21.39767242",
        "lng": "39.87918447",
        "user_type": "entity"
    },
    {
        "id": 267,
        "name": "مركز الخدمة 11226",
        "lat": "21.39499325",
        "lng": "39.87506460",
        "user_type": "entity"
    },
    {
        "id": 268,
        "name": "مركز الخدمة 10664",
        "lat": "21.39863139",
        "lng": "39.88012861",
        "user_type": "entity"
    },
    {
        "id": 269,
        "name": "مركز الخدمة 3330",
        "lat": "21.40890995",
        "lng": "39.81772970",
        "user_type": "entity"
    },
    {
        "id": 270,
        "name": "مركز الخدمة 10487",
        "lat": "21.39871130",
        "lng": "39.87935613",
        "user_type": "entity"
    },
    {
        "id": 271,
        "name": "مركز الخدمة 10652",
        "lat": "21.39831173",
        "lng": "39.88038610",
        "user_type": "entity"
    },
    {
        "id": 272,
        "name": "فانجارى انترناشيونال",
        "lat": "21.40398552",
        "lng": "39.81815885",
        "user_type": "entity"
    },
    {
        "id": 273,
        "name": "مركز الخدمة 12610",
        "lat": "21.39791216",
        "lng": "39.87515043",
        "user_type": "entity"
    },
    {
        "id": 274,
        "name": "مركز الخدمة 14617",
        "lat": "21.39550972",
        "lng": "39.88048803",
        "user_type": "entity"
    },
    {
        "id": 275,
        "name": "مركز الخدمة 986",
        "lat": "21.39279131",
        "lng": "39.87942587",
        "user_type": "entity"
    },
    {
        "id": 276,
        "name": "مركز الخدمة 5",
        "lat": "21.40542391",
        "lng": "39.81833052",
        "user_type": "entity"
    },
    {
        "id": 277,
        "name": "مركز الخدمة 15327",
        "lat": "21.39489037",
        "lng": "39.87535428",
        "user_type": "entity"
    },
    {
        "id": 278,
        "name": "مركز الخدمة 8382",
        "lat": "21.39341691",
        "lng": "39.88083671",
        "user_type": "entity"
    },
    {
        "id": 279,
        "name": "مركز الخدمة 13365",
        "lat": "21.39487539",
        "lng": "39.87967800",
        "user_type": "entity"
    },
    {
        "id": 280,
        "name": "مركز الخدمة 14850",
        "lat": "21.40594333",
        "lng": "39.81833052",
        "user_type": "entity"
    },
    {
        "id": 281,
        "name": "مركز الخدمة 11954",
        "lat": "21.39461566",
        "lng": "39.87539719",
        "user_type": "entity"
    },
    {
        "id": 282,
        "name": "مركز الخدمة 10493",
        "lat": "21.39669346",
        "lng": "39.88100838",
        "user_type": "entity"
    },
    {
        "id": 283,
        "name": "مركز الخدمة 7047",
        "lat": "21.39560961",
        "lng": "39.87967800",
        "user_type": "entity"
    },
    {
        "id": 284,
        "name": "مركز الخدمة 494",
        "lat": "21.40261454",
        "lng": "39.81849145",
        "user_type": "entity"
    },
    {
        "id": 285,
        "name": "مركز الخدمة 10562",
        "lat": "21.39669346",
        "lng": "39.88108348",
        "user_type": "entity"
    },
    {
        "id": 286,
        "name": "مركز الخدمة 10665",
        "lat": "21.39871130",
        "lng": "39.87969946",
        "user_type": "entity"
    },
    {
        "id": 287,
        "name": "مركز الخدمة 789",
        "lat": "21.40466476",
        "lng": "39.81850218",
        "user_type": "entity"
    },
    {
        "id": 288,
        "name": "مركز الخدمة 12395",
        "lat": "21.39667348",
        "lng": "39.88120149",
        "user_type": "entity"
    },
    {
        "id": 289,
        "name": "مركز الخدمة 12948",
        "lat": "21.39906550",
        "lng": "39.87978171",
        "user_type": "entity"
    },
    {
        "id": 290,
        "name": "مركز الخدمة 14518",
        "lat": "21.40878010",
        "lng": "39.81854509",
        "user_type": "entity"
    },
    {
        "id": 291,
        "name": "مركز الخدمة 12318",
        "lat": "21.39663353",
        "lng": "39.88124441",
        "user_type": "entity"
    },
    {
        "id": 292,
        "name": "مركز الخدمة 12922",
        "lat": "21.39879049",
        "lng": "39.87978529",
        "user_type": "entity"
    },
    {
        "id": 293,
        "name": "المجلس الأعلى للشؤون الإسلامية بتنزانيا",
        "lat": "21.40294668",
        "lng": "39.81858801",
        "user_type": "entity"
    },
    {
        "id": 294,
        "name": "عتيق للحج والسفر",
        "lat": "21.39891608",
        "lng": "39.88274645",
        "user_type": "entity"
    },
    {
        "id": 295,
        "name": "مركز الخدمة 12307",
        "lat": "21.39667348",
        "lng": "39.88128733",
        "user_type": "entity"
    },
    {
        "id": 296,
        "name": "وكالة شريفلا للسفر والسياحة",
        "lat": "21.40294668",
        "lng": "39.81858801",
        "user_type": "entity"
    },
    {
        "id": 297,
        "name": "كاليكوت سهارا للسفر و السياحة",
        "lat": "21.39891608",
        "lng": "39.88274645",
        "user_type": "entity"
    },
    {
        "id": 298,
        "name": "مركز الخدمة 12374",
        "lat": "21.39671344",
        "lng": "39.88133024",
        "user_type": "entity"
    },
    {
        "id": 299,
        "name": "كروان تورس اترافيلس",
        "lat": "21.39891608",
        "lng": "39.88274645",
        "user_type": "entity"
    },
    {
        "id": 300,
        "name": "الصمد منظم خاصة محدودة",
        "lat": "21.39366166",
        "lng": "39.88141071",
        "user_type": "entity"
    },
    {
        "id": 301,
        "name": "مركز الخدمة 10667",
        "lat": "21.39655361",
        "lng": "39.88141607",
        "user_type": "entity"
    },
    {
        "id": 302,
        "name": "متقى حج عمره تورس",
        "lat": "21.39891608",
        "lng": "39.88274645",
        "user_type": "entity"
    },
    {
        "id": 303,
        "name": "مركز الخدمة 12298",
        "lat": "21.39651365",
        "lng": "39.88141607",
        "user_type": "entity"
    },
    {
        "id": 304,
        "name": "مروه حج تورس",
        "lat": "21.39891608",
        "lng": "39.88274645",
        "user_type": "entity"
    },
    {
        "id": 305,
        "name": "اليانس انتر ناشيونال تور ايند ترافيلس",
        "lat": "21.39759250",
        "lng": "39.87142752",
        "user_type": "entity"
    },
    {
        "id": 306,
        "name": "مركز الخدمة 12311",
        "lat": "21.39671344",
        "lng": "39.88150190",
        "user_type": "entity"
    },
    {
        "id": 307,
        "name": "مقدس حج كربرويشن",
        "lat": "21.39891608",
        "lng": "39.88274645",
        "user_type": "entity"
    },
    {
        "id": 308,
        "name": "عرفات لخدمة السفر",
        "lat": "21.39759250",
        "lng": "39.87142752",
        "user_type": "entity"
    },
    {
        "id": 309,
        "name": "مركز الخدمة 12304",
        "lat": "21.39639378",
        "lng": "39.88167356",
        "user_type": "entity"
    },
    {
        "id": 310,
        "name": "اعظم ترافيلس ايند تورس",
        "lat": "21.40175049",
        "lng": "39.87351428",
        "user_type": "entity"
    },
    {
        "id": 311,
        "name": "نيشمن حج عمره تورس ايند ترافيلس",
        "lat": "21.39891608",
        "lng": "39.88274645",
        "user_type": "entity"
    },
    {
        "id": 312,
        "name": "مركز الخدمة 913",
        "lat": "21.39731780",
        "lng": "39.87145435",
        "user_type": "entity"
    },
    {
        "id": 313,
        "name": "مركز الخدمة 12366",
        "lat": "21.39655361",
        "lng": "39.88167356",
        "user_type": "entity"
    },
    {
        "id": 314,
        "name": "هستري تروس اند ترافلس",
        "lat": "21.39891608",
        "lng": "39.88274645",
        "user_type": "entity"
    },
    {
        "id": 315,
        "name": "الشارق انتربرائزيز",
        "lat": "21.40175049",
        "lng": "39.87351428",
        "user_type": "entity"
    },
    {
        "id": 316,
        "name": "مركز الخدمة 14726",
        "lat": "21.39505520",
        "lng": "39.87150263",
        "user_type": "entity"
    },
    {
        "id": 317,
        "name": "آزاد إيــار كنكشون",
        "lat": "21.39891608",
        "lng": "39.88274645",
        "user_type": "entity"
    },
    {
        "id": 318,
        "name": "وكالة الميزاب",
        "lat": "21.39295240",
        "lng": "39.88180231",
        "user_type": "entity"
    },
    {
        "id": 319,
        "name": "اليانس انتر ناشيونال تور ايند ترافيلس",
        "lat": "21.40175049",
        "lng": "39.87351428",
        "user_type": "entity"
    },
    {
        "id": 320,
        "name": "مركز الخدمة 14644",
        "lat": "21.39357675",
        "lng": "39.87170111",
        "user_type": "entity"
    },
    {
        "id": 321,
        "name": "وكالة فيرست كلاس",
        "lat": "21.39295240",
        "lng": "39.88180231",
        "user_type": "entity"
    },
    {
        "id": 322,
        "name": "إمداد إيار نرافلس اند تورس",
        "lat": "21.39891608",
        "lng": "39.88274645",
        "user_type": "entity"
    },
    {
        "id": 323,
        "name": "فلاي انترناشونال",
        "lat": "21.40175049",
        "lng": "39.87351428",
        "user_type": "entity"
    },
    {
        "id": 324,
        "name": "مركز الخدمة 899",
        "lat": "21.39322961",
        "lng": "39.87176548",
        "user_type": "entity"
    },
    {
        "id": 325,
        "name": "السعادة/هولى إيار سرفيسس",
        "lat": "21.39891608",
        "lng": "39.88274645",
        "user_type": "entity"
    },
    {
        "id": 326,
        "name": "مركز الخدمة 12295",
        "lat": "21.39647370",
        "lng": "39.88193106",
        "user_type": "entity"
    },
    {
        "id": 327,
        "name": "كوزميك للسفر والسياحة",
        "lat": "21.40175049",
        "lng": "39.87351428",
        "user_type": "entity"
    },
    {
        "id": 328,
        "name": "مركز الخدمة 12794",
        "lat": "21.39439589",
        "lng": "39.87179231",
        "user_type": "entity"
    },
    {
        "id": 329,
        "name": "المدينـة  ترافلس اند حج كافلة",
        "lat": "21.39891608",
        "lng": "39.88274645",
        "user_type": "entity"
    },
    {
        "id": 330,
        "name": "ألمانوس تورس و ترافلس",
        "lat": "21.39891608",
        "lng": "39.88274645",
        "user_type": "entity"
    },
    {
        "id": 331,
        "name": "كوزميك لينكوايس",
        "lat": "21.40175049",
        "lng": "39.87351428",
        "user_type": "entity"
    },
    {
        "id": 332,
        "name": "مركز الخدمة 7810",
        "lat": "21.39848602",
        "lng": "39.87180417",
        "user_type": "entity"
    },
    {
        "id": 333,
        "name": "ايار تش ليمتيد",
        "lat": "21.39891608",
        "lng": "39.88274645",
        "user_type": "entity"
    },
    {
        "id": 334,
        "name": "أولياء حج تورس",
        "lat": "21.39891608",
        "lng": "39.88274645",
        "user_type": "entity"
    },
    {
        "id": 335,
        "name": "مركز الخدمة 14767",
        "lat": "21.39988253",
        "lng": "39.87352769",
        "user_type": "entity"
    },
    {
        "id": 336,
        "name": "مركز الخدمة 2187",
        "lat": "21.39491035",
        "lng": "39.87183522",
        "user_type": "entity"
    },
    {
        "id": 337,
        "name": "بنغلاديش إيار ترافلس",
        "lat": "21.39891608",
        "lng": "39.88274645",
        "user_type": "entity"
    },
    {
        "id": 338,
        "name": "الهدايت تورس وترافلس",
        "lat": "21.39891608",
        "lng": "39.88274645",
        "user_type": "entity"
    },
    {
        "id": 339,
        "name": "مركز الخدمة 7124",
        "lat": "21.40007982",
        "lng": "39.87354379",
        "user_type": "entity"
    },
    {
        "id": 340,
        "name": "مركز الخدمة 11479",
        "lat": "21.39238798",
        "lng": "39.87189959",
        "user_type": "entity"
    },
    {
        "id": 341,
        "name": "بهينيس ترافلس اند تورس ",
        "lat": "21.39891608",
        "lng": "39.88274645",
        "user_type": "entity"
    },
    {
        "id": 342,
        "name": "ام كي حج وعمرة ترافلس",
        "lat": "21.39891608",
        "lng": "39.88274645",
        "user_type": "entity"
    },
    {
        "id": 343,
        "name": "مركز الخدمة 13036",
        "lat": "21.39807199",
        "lng": "39.87358402",
        "user_type": "entity"
    },
    {
        "id": 344,
        "name": "دى إسلامية ترافلس اند تورس",
        "lat": "21.39891608",
        "lng": "39.88274645",
        "user_type": "entity"
    },
    {
        "id": 345,
        "name": "مركز الخدمة 11823",
        "lat": "21.39567454",
        "lng": "39.87190496",
        "user_type": "entity"
    },
    {
        "id": 346,
        "name": "تاج للسفر والسياحة",
        "lat": "21.39891608",
        "lng": "39.88274645",
        "user_type": "entity"
    },
    {
        "id": 347,
        "name": "مركز الخدمة 741",
        "lat": "21.39724787",
        "lng": "39.87362694",
        "user_type": "entity"
    },
    {
        "id": 348,
        "name": "مركز الخدمة 15120",
        "lat": "21.39553719",
        "lng": "39.87191569",
        "user_type": "entity"
    },
    {
        "id": 349,
        "name": "شنجري تبابلس اند تورس",
        "lat": "21.39891608",
        "lng": "39.88274645",
        "user_type": "entity"
    },
    {
        "id": 350,
        "name": "جدة ترافلس وجدة مجموعة الحج",
        "lat": "21.39891608",
        "lng": "39.88274645",
        "user_type": "entity"
    },
    {
        "id": 351,
        "name": "مركز الخدمة 10457",
        "lat": "21.39874127",
        "lng": "39.87368058",
        "user_type": "entity"
    },
    {
        "id": 352,
        "name": "مركز الخدمة 9452",
        "lat": "21.39373439",
        "lng": "39.87208299",
        "user_type": "entity"
    },
    {
        "id": 353,
        "name": "فارفيكت ترافلس",
        "lat": "21.39891608",
        "lng": "39.88274645",
        "user_type": "entity"
    },
    {
        "id": 354,
        "name": "حج بيت الله حج عمرة تور كاربوريشن",
        "lat": "21.39891608",
        "lng": "39.88274645",
        "user_type": "entity"
    },
    {
        "id": 355,
        "name": "القوي منظم خاصة محدودة",
        "lat": "21.40055930",
        "lng": "39.87368058",
        "user_type": "entity"
    },
    {
        "id": 356,
        "name": "مركز الخدمة 13635",
        "lat": "21.40076657",
        "lng": "39.87213026",
        "user_type": "entity"
    },
    {
        "id": 357,
        "name": "مبرور يار ترافلس",
        "lat": "21.39891608",
        "lng": "39.88274645",
        "user_type": "entity"
    },
    {
        "id": 358,
        "name": "حجاز تورس ايند تراويلس",
        "lat": "21.39891608",
        "lng": "39.88274645",
        "user_type": "entity"
    },
    {
        "id": 359,
        "name": "الكبير منظم خاصة المحدودة",
        "lat": "21.40055930",
        "lng": "39.87368058",
        "user_type": "entity"
    },
    {
        "id": 360,
        "name": "العفو منظم خاصة محدودة",
        "lat": "21.39891608",
        "lng": "39.88274645",
        "user_type": "entity"
    },
    {
        "id": 361,
        "name": "مركز الخدمة 13875",
        "lat": "21.39847406",
        "lng": "39.87218123",
        "user_type": "entity"
    },
    {
        "id": 362,
        "name": "دار الايمان تورس انترناشيونال",
        "lat": "21.39891608",
        "lng": "39.88274645",
        "user_type": "entity"
    },
    {
        "id": 363,
        "name": "استاندارد للسياحة",
        "lat": "21.39311223",
        "lng": "39.87017225",
        "user_type": "entity"
    },
    {
        "id": 364,
        "name": "مركز الخدمة 13424",
        "lat": "21.39913085",
        "lng": "39.87395953",
        "user_type": "entity"
    },
    {
        "id": 365,
        "name": "مركز الخدمة 6461",
        "lat": "21.39716796",
        "lng": "39.87224158",
        "user_type": "entity"
    },
    {
        "id": 366,
        "name": "زين ترافيلس اب انديا",
        "lat": "21.39891608",
        "lng": "39.88274645",
        "user_type": "entity"
    },
    {
        "id": 367,
        "name": "البرهان منظم  خاصة  المحدودة",
        "lat": "21.39807199",
        "lng": "39.87397026",
        "user_type": "entity"
    },
    {
        "id": 368,
        "name": "السلام حج و عمرة تورس",
        "lat": "21.39311223",
        "lng": "39.87017225",
        "user_type": "entity"
    },
    {
        "id": 369,
        "name": "مركز الخدمة 11959",
        "lat": "21.39950669",
        "lng": "39.87244811",
        "user_type": "entity"
    },
    {
        "id": 370,
        "name": "ستيرن الايانس انترناشيونال تورس آنت ترافلس",
        "lat": "21.39891608",
        "lng": "39.88274645",
        "user_type": "entity"
    },
    {
        "id": 371,
        "name": "بخلة انترناشونال ترافلز",
        "lat": "21.39311223",
        "lng": "39.87017225",
        "user_type": "entity"
    },
    {
        "id": 372,
        "name": "مركز الخدمة 8050",
        "lat": "21.39723955",
        "lng": "39.87397741",
        "user_type": "entity"
    },
    {
        "id": 373,
        "name": "مركز الخدمة 13762",
        "lat": "21.39898101",
        "lng": "39.87247895",
        "user_type": "entity"
    },
    {
        "id": 374,
        "name": "شركة الحافظ للسفر والسياحة",
        "lat": "21.39891608",
        "lng": "39.88274645",
        "user_type": "entity"
    },
    {
        "id": 375,
        "name": "بكهلا للسفر والسياحة",
        "lat": "21.39311223",
        "lng": "39.87017225",
        "user_type": "entity"
    },
    {
        "id": 376,
        "name": "المعيد منظم الخاصة المحدودة",
        "lat": "21.39857894",
        "lng": "39.87405073",
        "user_type": "entity"
    },
    {
        "id": 377,
        "name": "مركز الخدمة 14717",
        "lat": "21.39688826",
        "lng": "39.87248163",
        "user_type": "entity"
    },
    {
        "id": 378,
        "name": "دار السلام تورس ايند ترافلس",
        "lat": "21.39311223",
        "lng": "39.87017225",
        "user_type": "entity"
    },
    {
        "id": 379,
        "name": "إحسان إيفيئيشن",
        "lat": "21.40081901",
        "lng": "39.87406682",
        "user_type": "entity"
    },
    {
        "id": 380,
        "name": "مركز الخدمة 15020",
        "lat": "21.39644543",
        "lng": "39.87272419",
        "user_type": "entity"
    },
    {
        "id": 381,
        "name": "رويال ترافل",
        "lat": "21.39311223",
        "lng": "39.87017225",
        "user_type": "entity"
    },
    {
        "id": 382,
        "name": "ايار تش ليمتيد",
        "lat": "21.40081901",
        "lng": "39.87406682",
        "user_type": "entity"
    },
    {
        "id": 383,
        "name": "مركز الخدمة 12967",
        "lat": "21.39805201",
        "lng": "39.87274717",
        "user_type": "entity"
    },
    {
        "id": 384,
        "name": "طواف اسكي تورس لمتيد",
        "lat": "21.40081901",
        "lng": "39.87406682",
        "user_type": "entity"
    },
    {
        "id": 385,
        "name": "ريغال تور سرفيسس",
        "lat": "21.39311223",
        "lng": "39.87017225",
        "user_type": "entity"
    },
    {
        "id": 386,
        "name": "قبلة حج عمرة سرفيس",
        "lat": "21.40152824",
        "lng": "39.87546157",
        "user_type": "entity"
    },
    {
        "id": 387,
        "name": "مركز الخدمة 7937",
        "lat": "21.39758251",
        "lng": "39.87285446",
        "user_type": "entity"
    },
    {
        "id": 388,
        "name": "مركز الخدمة 4851",
        "lat": "21.39903096",
        "lng": "39.87410169",
        "user_type": "entity"
    },
    {
        "id": 389,
        "name": "سليمه تورس وترافلس",
        "lat": "21.39311223",
        "lng": "39.87017225",
        "user_type": "entity"
    },
    {
        "id": 390,
        "name": "مللت انترنيشنل",
        "lat": "21.40152824",
        "lng": "39.87546157",
        "user_type": "entity"
    },
    {
        "id": 391,
        "name": "الفتح لخدمات الحج",
        "lat": "21.40119361",
        "lng": "39.87422775",
        "user_type": "entity"
    },
    {
        "id": 392,
        "name": "مسافر تورس وترافليس",
        "lat": "21.39311223",
        "lng": "39.87017225",
        "user_type": "entity"
    },
    {
        "id": 393,
        "name": "مركز الخدمة 9497",
        "lat": "21.39666349",
        "lng": "39.87293761",
        "user_type": "entity"
    },
    {
        "id": 394,
        "name": "دى. بى.إم ترافلي اند تورس",
        "lat": "21.39247789",
        "lng": "39.87403463",
        "user_type": "entity"
    },
    {
        "id": 395,
        "name": "النور لخدمات الحج",
        "lat": "21.40119361",
        "lng": "39.87422775",
        "user_type": "entity"
    },
    {
        "id": 396,
        "name": "المائزة تورس و ترافلس",
        "lat": "21.39705308",
        "lng": "39.87294029",
        "user_type": "entity"
    },
    {
        "id": 397,
        "name": "امانة للسفر والسياحة",
        "lat": "21.39311223",
        "lng": "39.87017225",
        "user_type": "entity"
    },
    {
        "id": 398,
        "name": "مركز الخدمة 4766",
        "lat": "21.39611408",
        "lng": "39.87078379",
        "user_type": "entity"
    },
    {
        "id": 399,
        "name": "الهدي حج سرفيسس الخاصة المحدودة",
        "lat": "21.40119361",
        "lng": "39.87422775",
        "user_type": "entity"
    },
    {
        "id": 400,
        "name": "ايس ايه انتربرائيسيس",
        "lat": "21.39705308",
        "lng": "39.87294029",
        "user_type": "entity"
    },
    {
        "id": 401,
        "name": "مركز الخدمة 9424",
        "lat": "21.39275760",
        "lng": "39.87048339",
        "user_type": "entity"
    },
    {
        "id": 402,
        "name": "سفريات0 ام 0ان0",
        "lat": "21.40119361",
        "lng": "39.87422775",
        "user_type": "entity"
    },
    {
        "id": 403,
        "name": "مركز الخدمة 11858",
        "lat": "21.39284251",
        "lng": "39.87219464",
        "user_type": "entity"
    },
    {
        "id": 404,
        "name": "مركز الخدمة 13874",
        "lat": "21.39571950",
        "lng": "39.87059068",
        "user_type": "entity"
    },
    {
        "id": 405,
        "name": "عظيم للسفر والسياحة",
        "lat": "21.39705308",
        "lng": "39.87294029",
        "user_type": "entity"
    },
    {
        "id": 406,
        "name": "مركز الخدمة 13117",
        "lat": "21.39613406",
        "lng": "39.87253260",
        "user_type": "entity"
    },
    {
        "id": 407,
        "name": "مركز الخدمة 15209",
        "lat": "21.40024214",
        "lng": "39.87424921",
        "user_type": "entity"
    },
    {
        "id": 408,
        "name": "الحسام للسفر والسياحة",
        "lat": "21.39446332",
        "lng": "39.87064164",
        "user_type": "entity"
    },
    {
        "id": 409,
        "name": "سفريات0 ام 0ان0",
        "lat": "21.39705308",
        "lng": "39.87294029",
        "user_type": "entity"
    },
    {
        "id": 410,
        "name": "مركز الخدمة 12820",
        "lat": "21.39899100",
        "lng": "39.87444233",
        "user_type": "entity"
    },
    {
        "id": 411,
        "name": "شركة الراجحي للخدمات التجارية المساندة",
        "lat": "21.39507518",
        "lng": "39.87253260",
        "user_type": "entity"
    },
    {
        "id": 412,
        "name": "طيبة حج سرفيس",
        "lat": "21.39446332",
        "lng": "39.87064164",
        "user_type": "entity"
    },
    {
        "id": 413,
        "name": "صديق لسفريات والسياحة",
        "lat": "21.39705308",
        "lng": "39.87294029",
        "user_type": "entity"
    },
    {
        "id": 414,
        "name": "مركز الخدمة 15212",
        "lat": "21.39370661",
        "lng": "39.87272571",
        "user_type": "entity"
    },
    {
        "id": 415,
        "name": "مركز الخدمة 12752",
        "lat": "21.39648867",
        "lng": "39.87065183",
        "user_type": "entity"
    },
    {
        "id": 416,
        "name": "كاكية للسياحة  والسفر",
        "lat": "21.39705308",
        "lng": "39.87294029",
        "user_type": "entity"
    },
    {
        "id": 417,
        "name": "مركز الخدمة 14036",
        "lat": "21.39702311",
        "lng": "39.87490903",
        "user_type": "entity"
    },
    {
        "id": 418,
        "name": "مركز الخدمة 13227",
        "lat": "21.39621897",
        "lng": "39.87305831",
        "user_type": "entity"
    },
    {
        "id": 419,
        "name": "مركز الخدمة 15239",
        "lat": "21.39771237",
        "lng": "39.87073015",
        "user_type": "entity"
    },
    {
        "id": 420,
        "name": "مركز الخدمة 11574",
        "lat": "21.39923074",
        "lng": "39.87296175",
        "user_type": "entity"
    },
    {
        "id": 421,
        "name": "وكالة القبلة للحج والعمرة",
        "lat": "21.39702311",
        "lng": "39.87490903",
        "user_type": "entity"
    },
    {
        "id": 422,
        "name": "مركز الخدمة 14113",
        "lat": "21.39200837",
        "lng": "39.87320315",
        "user_type": "entity"
    },
    {
        "id": 423,
        "name": "مركز الخدمة 5708",
        "lat": "21.39377154",
        "lng": "39.87097960",
        "user_type": "entity"
    },
    {
        "id": 424,
        "name": "بينا رنج ترافلس المحدودة الخاصة",
        "lat": "21.39764744",
        "lng": "39.87296711",
        "user_type": "entity"
    },
    {
        "id": 425,
        "name": "الوكالة المالية للخدمات الجوية المحدودة",
        "lat": "21.39702311",
        "lng": "39.87490903",
        "user_type": "entity"
    },
    {
        "id": 426,
        "name": "مركز الخدمة 5419",
        "lat": "21.39519005",
        "lng": "39.87356793",
        "user_type": "entity"
    },
    {
        "id": 427,
        "name": "ايشين للسفر والسياحة",
        "lat": "21.39692821",
        "lng": "39.87106811",
        "user_type": "entity"
    },
    {
        "id": 428,
        "name": "فاطمة غني لخدمات الحج",
        "lat": "21.39764744",
        "lng": "39.87296711",
        "user_type": "entity"
    },
    {
        "id": 429,
        "name": "مركز الخدمة 9087",
        "lat": "21.39519755",
        "lng": "39.87359207",
        "user_type": "entity"
    },
    {
        "id": 430,
        "name": "توب 10",
        "lat": "21.39702311",
        "lng": "39.87490903",
        "user_type": "entity"
    },
    {
        "id": 431,
        "name": "هاد منظم الخاصة المحدودة",
        "lat": "21.39764744",
        "lng": "39.87296711",
        "user_type": "entity"
    },
    {
        "id": 432,
        "name": "النور تورس وترافيلس",
        "lat": "21.39661854",
        "lng": "39.87106811",
        "user_type": "entity"
    },
    {
        "id": 433,
        "name": "ايار بيس ترابلس",
        "lat": "21.39519755",
        "lng": "39.87359207",
        "user_type": "entity"
    },
    {
        "id": 434,
        "name": "وكالة السفر طيبة",
        "lat": "21.39702311",
        "lng": "39.87490903",
        "user_type": "entity"
    },
    {
        "id": 435,
        "name": "مركز الخدمة 12030",
        "lat": "21.40050186",
        "lng": "39.87300735",
        "user_type": "entity"
    },
    {
        "id": 436,
        "name": "مركز الخدمة 3835",
        "lat": "21.39567454",
        "lng": "39.87107347",
        "user_type": "entity"
    },
    {
        "id": 437,
        "name": "مركز الخدمة 14648",
        "lat": "21.39174864",
        "lng": "39.87380933",
        "user_type": "entity"
    },
    {
        "id": 438,
        "name": "وكالة نور الهدى للسفريات",
        "lat": "21.39702311",
        "lng": "39.87490903",
        "user_type": "entity"
    },
    {
        "id": 439,
        "name": "مركز الخدمة 14535",
        "lat": "21.39791216",
        "lng": "39.87311195",
        "user_type": "entity"
    },
    {
        "id": 440,
        "name": "مركز الخدمة 6962",
        "lat": "21.39312971",
        "lng": "39.87395148",
        "user_type": "entity"
    },
    {
        "id": 441,
        "name": "مركز الخدمة 12697",
        "lat": "21.39606413",
        "lng": "39.87129341",
        "user_type": "entity"
    },
    {
        "id": 442,
        "name": "وكالة نيورو ساحل",
        "lat": "21.39702311",
        "lng": "39.87490903",
        "user_type": "entity"
    },
    {
        "id": 443,
        "name": "مركز الخدمة 13059",
        "lat": "21.39823182",
        "lng": "39.87328361",
        "user_type": "entity"
    },
    {
        "id": 444,
        "name": "مركز الخدمة 6692",
        "lat": "21.39121918",
        "lng": "39.87398099",
        "user_type": "entity"
    },
    {
        "id": 445,
        "name": "الملتظم حج و عمره سيرفس",
        "lat": "21.40152824",
        "lng": "39.87546157",
        "user_type": "entity"
    },
    {
        "id": 446,
        "name": "مركز الخدمة 2457",
        "lat": "21.39905593",
        "lng": "39.87333189",
        "user_type": "entity"
    },
    {
        "id": 447,
        "name": "مركز الخدمة 14244",
        "lat": "21.39275510",
        "lng": "39.87398903",
        "user_type": "entity"
    },
    {
        "id": 448,
        "name": "ايمان انترناشونالز",
        "lat": "21.40152824",
        "lng": "39.87546157",
        "user_type": "entity"
    },
    {
        "id": 449,
        "name": "مركز الخدمة 13448",
        "lat": "21.39777231",
        "lng": "39.87334799",
        "user_type": "entity"
    },
    {
        "id": 450,
        "name": "البشرى لخدمات الحج",
        "lat": "21.39525124",
        "lng": "39.87404536",
        "user_type": "entity"
    },
    {
        "id": 451,
        "name": "بكة تورس ايند ترافلس",
        "lat": "21.40152824",
        "lng": "39.87546157",
        "user_type": "entity"
    },
    {
        "id": 452,
        "name": "بركات لخدمات الحج",
        "lat": "21.39525124",
        "lng": "39.87404536",
        "user_type": "entity"
    },
    {
        "id": 453,
        "name": "مركز الخدمة 14906",
        "lat": "21.39089951",
        "lng": "39.87583708",
        "user_type": "entity"
    },
    {
        "id": 454,
        "name": "سكاي شيب انترناشيونال",
        "lat": "21.40152824",
        "lng": "39.87546157",
        "user_type": "entity"
    },
    {
        "id": 455,
        "name": "شاه لخدمة الحجاج",
        "lat": "21.39525124",
        "lng": "39.87404536",
        "user_type": "entity"
    },
    {
        "id": 456,
        "name": "شركة روماني انتربرايزز",
        "lat": "21.40152824",
        "lng": "39.87546157",
        "user_type": "entity"
    },
    {
        "id": 457,
        "name": "مركز الخدمة 11463",
        "lat": "21.39167871",
        "lng": "39.87584781",
        "user_type": "entity"
    },
    {
        "id": 458,
        "name": "شركة الراجحي للخدمات التجارية المساندة",
        "lat": "21.39555467",
        "lng": "39.87407755",
        "user_type": "entity"
    },
    {
        "id": 459,
        "name": "مركز الخدمة 6986",
        "lat": "21.39324959",
        "lng": "39.87589877",
        "user_type": "entity"
    },
    {
        "id": 460,
        "name": "عادلة حج و عمرة سرفيسيس",
        "lat": "21.40152824",
        "lng": "39.87546157",
        "user_type": "entity"
    },
    {
        "id": 461,
        "name": "مركز الخدمة 13857",
        "lat": "21.39167122",
        "lng": "39.87416606",
        "user_type": "entity"
    },
    {
        "id": 462,
        "name": "مركز الخدمة 71",
        "lat": "21.39207830",
        "lng": "39.87892698",
        "user_type": "entity"
    },
    {
        "id": 463,
        "name": "باب السلام إسكائى إيار أوئز",
        "lat": "21.39431597",
        "lng": "39.87592291",
        "user_type": "entity"
    },
    {
        "id": 464,
        "name": "مركز الخدمة 1426",
        "lat": "21.39342940",
        "lng": "39.87427067",
        "user_type": "entity"
    },
    {
        "id": 465,
        "name": "ديشن برومن لميتد",
        "lat": "21.38971073",
        "lng": "39.86916240",
        "user_type": "entity"
    },
    {
        "id": 466,
        "name": "وكالة القبلة للحج والعمرة",
        "lat": "21.39431597",
        "lng": "39.87592291",
        "user_type": "entity"
    },
    {
        "id": 467,
        "name": "مركز الخدمة 1700",
        "lat": "21.39326707",
        "lng": "39.87450670",
        "user_type": "entity"
    },
    {
        "id": 468,
        "name": "مؤسسة محمد علي",
        "lat": "21.38473570",
        "lng": "39.86922275",
        "user_type": "entity"
    },
    {
        "id": 469,
        "name": "توب 10",
        "lat": "21.39431597",
        "lng": "39.87592291",
        "user_type": "entity"
    },
    {
        "id": 470,
        "name": "أحمد ورلد ترافلز للسياحة والشحن المحدودة",
        "lat": "21.39094197",
        "lng": "39.87451207",
        "user_type": "entity"
    },
    {
        "id": 471,
        "name": "نواب ترافلس الخاصة المحدودة",
        "lat": "21.38473570",
        "lng": "39.86922275",
        "user_type": "entity"
    },
    {
        "id": 472,
        "name": "وكالة نيورو ساحل",
        "lat": "21.39431597",
        "lng": "39.87592291",
        "user_type": "entity"
    },
    {
        "id": 473,
        "name": "المدينة حج سيرفيس",
        "lat": "21.39094197",
        "lng": "39.87451207",
        "user_type": "entity"
    },
    {
        "id": 474,
        "name": "مركز الخدمة 8070",
        "lat": "21.38671374",
        "lng": "39.87706016",
        "user_type": "entity"
    },
    {
        "id": 475,
        "name": "مركز الخدمة 12519",
        "lat": "21.38762283",
        "lng": "39.86926030",
        "user_type": "entity"
    },
    {
        "id": 476,
        "name": "ييريوا للسفريات",
        "lat": "21.39431597",
        "lng": "39.87592291",
        "user_type": "entity"
    },
    {
        "id": 477,
        "name": "المصباح حج وعمره سيرفس",
        "lat": "21.39094197",
        "lng": "39.87451207",
        "user_type": "entity"
    },
    {
        "id": 478,
        "name": "موسى منظم الخاصة المحدودة",
        "lat": "21.38686359",
        "lng": "39.86981552",
        "user_type": "entity"
    },
    {
        "id": 479,
        "name": "مركز الخدمة 8395",
        "lat": "21.38607937",
        "lng": "39.87716477",
        "user_type": "entity"
    },
    {
        "id": 480,
        "name": "الله نور للسفروالسياحة المحدودة",
        "lat": "21.39431597",
        "lng": "39.87592291",
        "user_type": "entity"
    },
    {
        "id": 481,
        "name": "قومي تورس ايند ترافلس",
        "lat": "21.39094197",
        "lng": "39.87451207",
        "user_type": "entity"
    },
    {
        "id": 482,
        "name": "مركز الخدمة 8783",
        "lat": "21.38848197",
        "lng": "39.87729620",
        "user_type": "entity"
    },
    {
        "id": 483,
        "name": "مركز الخدمة 14938",
        "lat": "21.38568476",
        "lng": "39.87120222",
        "user_type": "entity"
    },
    {
        "id": 484,
        "name": "دان بار ي المحدودة",
        "lat": "21.39431597",
        "lng": "39.87592291",
        "user_type": "entity"
    },
    {
        "id": 485,
        "name": "شبرا للسفريات المحدودة",
        "lat": "21.39431597",
        "lng": "39.87592291",
        "user_type": "entity"
    },
    {
        "id": 486,
        "name": "عباد الرحمن",
        "lat": "21.38570474",
        "lng": "39.87144630",
        "user_type": "entity"
    },
    {
        "id": 487,
        "name": "مركز الخدمة 2011",
        "lat": "21.38752293",
        "lng": "39.87731766",
        "user_type": "entity"
    },
    {
        "id": 488,
        "name": "مركز الخدمة 13483",
        "lat": "21.39174240",
        "lng": "39.87454023",
        "user_type": "entity"
    },
    {
        "id": 489,
        "name": "مركز الخدمة 15058",
        "lat": "21.38560484",
        "lng": "39.87145971",
        "user_type": "entity"
    },
    {
        "id": 490,
        "name": "فوكلبوينت للسفريات المحدودة",
        "lat": "21.39431597",
        "lng": "39.87592291",
        "user_type": "entity"
    },
    {
        "id": 491,
        "name": "مركز الخدمة 15156",
        "lat": "21.39215822",
        "lng": "39.87454962",
        "user_type": "entity"
    },
    {
        "id": 492,
        "name": "مركز الخدمة 12277",
        "lat": "21.38655640",
        "lng": "39.87743299",
        "user_type": "entity"
    },
    {
        "id": 493,
        "name": "ادين والا تورس وترافيلسن",
        "lat": "21.38342198",
        "lng": "39.87180303",
        "user_type": "entity"
    },
    {
        "id": 494,
        "name": "قبلة للخدمات الدولية المحدودة",
        "lat": "21.39431597",
        "lng": "39.87592291",
        "user_type": "entity"
    },
    {
        "id": 495,
        "name": "مركز الخدمة 12974",
        "lat": "21.39361421",
        "lng": "39.87461667",
        "user_type": "entity"
    },
    {
        "id": 496,
        "name": "مركز الخدمة 7785",
        "lat": "21.38568476",
        "lng": "39.87763952",
        "user_type": "entity"
    },
    {
        "id": 497,
        "name": "مركز الخدمة 12909",
        "lat": "21.39431597",
        "lng": "39.87592291",
        "user_type": "entity"
    },
    {
        "id": 498,
        "name": "الاكشا تورس وترافلس",
        "lat": "21.38342198",
        "lng": "39.87180303",
        "user_type": "entity"
    },
    {
        "id": 499,
        "name": "مركز الخدمة 2302",
        "lat": "21.39257279",
        "lng": "39.87495522",
        "user_type": "entity"
    },
    {
        "id": 500,
        "name": "مركز الخدمة 14672",
        "lat": "21.38837208",
        "lng": "39.87774681",
        "user_type": "entity"
    },
    {
        "id": 501,
        "name": "مركز الخدمة 12909",
        "lat": "21.39431597",
        "lng": "39.87592291",
        "user_type": "entity"
    },
    {
        "id": 502,
        "name": "الجميل حاج تورز",
        "lat": "21.38342198",
        "lng": "39.87180303",
        "user_type": "entity"
    },
    {
        "id": 503,
        "name": "مركز الخدمة 8396",
        "lat": "21.38630415",
        "lng": "39.87776827",
        "user_type": "entity"
    },
    {
        "id": 504,
        "name": "مركز الخدمة 7681",
        "lat": "21.39119421",
        "lng": "39.87498950",
        "user_type": "entity"
    },
    {
        "id": 505,
        "name": "مركز الخدمة 12909",
        "lat": "21.39431597",
        "lng": "39.87592291",
        "user_type": "entity"
    },
    {
        "id": 506,
        "name": "شعائر حج تورس",
        "lat": "21.38342198",
        "lng": "39.87180303",
        "user_type": "entity"
    },
    {
        "id": 507,
        "name": "مركز الخدمة 7835",
        "lat": "21.38885160",
        "lng": "39.87786483",
        "user_type": "entity"
    },
    {
        "id": 508,
        "name": "مركز الخدمة 15128",
        "lat": "21.39221816",
        "lng": "39.87500023",
        "user_type": "entity"
    },
    {
        "id": 509,
        "name": "مركز الخدمة 11575",
        "lat": "21.39075966",
        "lng": "39.87626623",
        "user_type": "entity"
    },
    {
        "id": 510,
        "name": "محمديه تورس اند تراويلس",
        "lat": "21.38342198",
        "lng": "39.87180303",
        "user_type": "entity"
    },
    {
        "id": 511,
        "name": "مركز الخدمة 12814",
        "lat": "21.38718327",
        "lng": "39.87791311",
        "user_type": "entity"
    },
    {
        "id": 512,
        "name": "مركز الخدمة 9464",
        "lat": "21.39335697",
        "lng": "39.87506460",
        "user_type": "entity"
    },
    {
        "id": 513,
        "name": "مركز الخدمة 13068",
        "lat": "21.39121419",
        "lng": "39.87636815",
        "user_type": "entity"
    },
    {
        "id": 514,
        "name": "برشاه أوفرسيس",
        "lat": "21.38779266",
        "lng": "39.87200688",
        "user_type": "entity"
    },
    {
        "id": 515,
        "name": "مركز الخدمة 14841",
        "lat": "21.38676869",
        "lng": "39.87794529",
        "user_type": "entity"
    },
    {
        "id": 516,
        "name": "مركز الخدمة 9495",
        "lat": "21.39180858",
        "lng": "39.87514507",
        "user_type": "entity"
    },
    {
        "id": 517,
        "name": "مركز الخدمة 14498",
        "lat": "21.38734311",
        "lng": "39.87204443",
        "user_type": "entity"
    },
    {
        "id": 518,
        "name": "مركز الخدمة 12577",
        "lat": "21.39130660",
        "lng": "39.87679664",
        "user_type": "entity"
    },
    {
        "id": 519,
        "name": "مركز الخدمة 7876",
        "lat": "21.38736309",
        "lng": "39.87798284",
        "user_type": "entity"
    },
    {
        "id": 520,
        "name": "مركز الخدمة 9470",
        "lat": "21.39265770",
        "lng": "39.87524699",
        "user_type": "entity"
    },
    {
        "id": 521,
        "name": "مركز الخدمة 8681",
        "lat": "21.38796499",
        "lng": "39.87206321",
        "user_type": "entity"
    },
    {
        "id": 522,
        "name": "مركز الخدمة 13367",
        "lat": "21.39050616",
        "lng": "39.87709503",
        "user_type": "entity"
    },
    {
        "id": 523,
        "name": "مركز الخدمة 13296",
        "lat": "21.38840205",
        "lng": "39.87806867",
        "user_type": "entity"
    },
    {
        "id": 524,
        "name": "مركز الخدمة 14643",
        "lat": "21.39184354",
        "lng": "39.87562250",
        "user_type": "entity"
    },
    {
        "id": 525,
        "name": "مركز الخدمة 1083",
        "lat": "21.39247789",
        "lng": "39.87712454",
        "user_type": "entity"
    },
    {
        "id": 526,
        "name": "مركز الخدمة 15200",
        "lat": "21.38662383",
        "lng": "39.87225096",
        "user_type": "entity"
    },
    {
        "id": 527,
        "name": "مركز الخدمة 6264",
        "lat": "21.39335198",
        "lng": "39.87567614",
        "user_type": "entity"
    },
    {
        "id": 528,
        "name": "مركز الخدمة 8612",
        "lat": "21.38577967",
        "lng": "39.87814512",
        "user_type": "entity"
    },
    {
        "id": 529,
        "name": "مركز الخدمة 7601",
        "lat": "21.39337695",
        "lng": "39.87736057",
        "user_type": "entity"
    },
    {
        "id": 530,
        "name": "مركز الخدمة 8922",
        "lat": "21.38588956",
        "lng": "39.87261038",
        "user_type": "entity"
    },
    {
        "id": 531,
        "name": "مركز الخدمة 14102",
        "lat": "21.38702343",
        "lng": "39.87814914",
        "user_type": "entity"
    },
    {
        "id": 532,
        "name": "اكشن ترافيل",
        "lat": "21.39013779",
        "lng": "39.87742763",
        "user_type": "entity"
    },
    {
        "id": 533,
        "name": "مركز الخدمة 14255",
        "lat": "21.38566978",
        "lng": "39.87268280",
        "user_type": "entity"
    },
    {
        "id": 534,
        "name": "مركز الخدمة 7336",
        "lat": "21.38586458",
        "lng": "39.87815451",
        "user_type": "entity"
    },
    {
        "id": 535,
        "name": "مركز الخدمة 14599",
        "lat": "21.38893651",
        "lng": "39.87295638",
        "user_type": "entity"
    },
    {
        "id": 536,
        "name": "كويك اير للسياحه",
        "lat": "21.39013779",
        "lng": "39.87742763",
        "user_type": "entity"
    },
    {
        "id": 537,
        "name": "مركز الخدمة 12417",
        "lat": "21.38872173",
        "lng": "39.87817060",
        "user_type": "entity"
    },
    {
        "id": 538,
        "name": "وزارة الاسكان",
        "lat": "21.39013779",
        "lng": "39.87742763",
        "user_type": "entity"
    },
    {
        "id": 539,
        "name": "شركة الراجحي للخدمات التجارية المساندة",
        "lat": "21.38640405",
        "lng": "39.87309049",
        "user_type": "entity"
    },
    {
        "id": 540,
        "name": "مركز الخدمة 9284",
        "lat": "21.38950094",
        "lng": "39.87817596",
        "user_type": "entity"
    },
    {
        "id": 541,
        "name": "مركز الخدمة 7841",
        "lat": "21.38729191",
        "lng": "39.88032709",
        "user_type": "entity"
    },
    {
        "id": 542,
        "name": "مركز الخدمة 1567",
        "lat": "21.39026516",
        "lng": "39.87759661",
        "user_type": "entity"
    },
    {
        "id": 543,
        "name": "الكفيل منظم الخاصة المحدودة",
        "lat": "21.38493051",
        "lng": "39.87323802",
        "user_type": "entity"
    },
    {
        "id": 544,
        "name": "مركز الخدمة 7698",
        "lat": "21.38532012",
        "lng": "39.87821888",
        "user_type": "entity"
    },
    {
        "id": 545,
        "name": "مركز الخدمة 8084",
        "lat": "21.38658387",
        "lng": "39.88034319",
        "user_type": "entity"
    },
    {
        "id": 546,
        "name": "الوالي منظم خاصة محدودة",
        "lat": "21.38493051",
        "lng": "39.87323802",
        "user_type": "entity"
    },
    {
        "id": 547,
        "name": "ميغا تشيترا إنتينا مانديري",
        "lat": "21.39112428",
        "lng": "39.87780045",
        "user_type": "entity"
    },
    {
        "id": 548,
        "name": "مركز الخدمة 9158",
        "lat": "21.38682363",
        "lng": "39.87824034",
        "user_type": "entity"
    },
    {
        "id": 549,
        "name": "مركز الخدمة 13260",
        "lat": "21.38857188",
        "lng": "39.88038610",
        "user_type": "entity"
    },
    {
        "id": 550,
        "name": "مركز الخدمة 14359",
        "lat": "21.39082771",
        "lng": "39.87324204",
        "user_type": "entity"
    },
    {
        "id": 551,
        "name": "مركز الخدمة 9460",
        "lat": "21.39023769",
        "lng": "39.87790238",
        "user_type": "entity"
    },
    {
        "id": 552,
        "name": "مركز الخدمة 9056",
        "lat": "21.38760285",
        "lng": "39.87824034",
        "user_type": "entity"
    },
    {
        "id": 553,
        "name": "مركز الخدمة 13274",
        "lat": "21.38839206",
        "lng": "39.88043975",
        "user_type": "entity"
    },
    {
        "id": 554,
        "name": "مركز الخدمة 6621",
        "lat": "21.38550993",
        "lng": "39.87372886",
        "user_type": "entity"
    },
    {
        "id": 555,
        "name": "مركز الخدمة 2006",
        "lat": "21.39133157",
        "lng": "39.87810891",
        "user_type": "entity"
    },
    {
        "id": 556,
        "name": "مركز الخدمة 7747",
        "lat": "21.38748797",
        "lng": "39.87825241",
        "user_type": "entity"
    },
    {
        "id": 557,
        "name": "مركز الخدمة 8235",
        "lat": "21.38764281",
        "lng": "39.88055776",
        "user_type": "entity"
    },
    {
        "id": 558,
        "name": "مركز الخدمة 8312",
        "lat": "21.42196439",
        "lng": "39.82699941",
        "user_type": "entity"
    },
    {
        "id": 559,
        "name": "شركة الراجحي للخدمات التجارية المساندة",
        "lat": "21.39042999",
        "lng": "39.87828325",
        "user_type": "entity"
    },
    {
        "id": 560,
        "name": "مركز الخدمة 1054",
        "lat": "21.38908511",
        "lng": "39.87846028",
        "user_type": "entity"
    },
    {
        "id": 561,
        "name": "مركز الخدمة 13270",
        "lat": "21.38871174",
        "lng": "39.88062214",
        "user_type": "entity"
    },
    {
        "id": 562,
        "name": "مركز الخدمة 7967",
        "lat": "21.39304230",
        "lng": "39.87331580",
        "user_type": "entity"
    },
    {
        "id": 563,
        "name": "مركز الخدمة 13808",
        "lat": "21.39265770",
        "lng": "39.87830471",
        "user_type": "entity"
    },
    {
        "id": 564,
        "name": "مركز الخدمة 8513",
        "lat": "21.38707338",
        "lng": "39.87848710",
        "user_type": "entity"
    },
    {
        "id": 565,
        "name": "مركز الخدمة 7364",
        "lat": "21.38812795",
        "lng": "39.88070663",
        "user_type": "entity"
    },
    {
        "id": 566,
        "name": "شركة رحلات ومنافع للسياحة",
        "lat": "21.38959085",
        "lng": "39.87371008",
        "user_type": "entity"
    },
    {
        "id": 567,
        "name": "مركز الخدمة 665",
        "lat": "21.39305729",
        "lng": "39.87866949",
        "user_type": "entity"
    },
    {
        "id": 568,
        "name": "مركز الخدمة 7840",
        "lat": "21.38824221",
        "lng": "39.87854074",
        "user_type": "entity"
    },
    {
        "id": 569,
        "name": "مركز الخدمة 13271",
        "lat": "21.38847198",
        "lng": "39.88071870",
        "user_type": "entity"
    },
    {
        "id": 570,
        "name": "مركز الخدمة 6503",
        "lat": "21.38836209",
        "lng": "39.87430822",
        "user_type": "entity"
    },
    {
        "id": 571,
        "name": "مركز الخدمة 8568",
        "lat": "21.39299735",
        "lng": "39.87872313",
        "user_type": "entity"
    },
    {
        "id": 572,
        "name": "مركز الخدمة 8975",
        "lat": "21.38774271",
        "lng": "39.88085817",
        "user_type": "entity"
    },
    {
        "id": 573,
        "name": "مركز الخدمة 5537",
        "lat": "21.38828717",
        "lng": "39.87475078",
        "user_type": "entity"
    },
    {
        "id": 574,
        "name": "مركز الخدمة 8246",
        "lat": "21.38692353",
        "lng": "39.87856220",
        "user_type": "entity"
    },
    {
        "id": 575,
        "name": "مركز الخدمة 5593",
        "lat": "21.39022021",
        "lng": "39.88087963",
        "user_type": "entity"
    },
    {
        "id": 576,
        "name": "مركز الخدمة 6727",
        "lat": "21.39280755",
        "lng": "39.87877410",
        "user_type": "entity"
    },
    {
        "id": 577,
        "name": "مركز الخدمة 7365",
        "lat": "21.39021271",
        "lng": "39.88096278",
        "user_type": "entity"
    },
    {
        "id": 578,
        "name": "مركز الخدمة 15017",
        "lat": "21.38752293",
        "lng": "39.87480711",
        "user_type": "entity"
    },
    {
        "id": 579,
        "name": "انجاز تورز",
        "lat": "21.39165873",
        "lng": "39.87885188",
        "user_type": "entity"
    },
    {
        "id": 580,
        "name": "مركز الخدمة 4547",
        "lat": "21.38989054",
        "lng": "39.88106068",
        "user_type": "entity"
    },
    {
        "id": 581,
        "name": "حملة التوحيد للحج والعمره",
        "lat": "21.38789256",
        "lng": "39.87481784",
        "user_type": "entity"
    },
    {
        "id": 582,
        "name": "مركز الخدمة 6498",
        "lat": "21.38816229",
        "lng": "39.87875532",
        "user_type": "entity"
    },
    {
        "id": 583,
        "name": "مركز الخدمة 8103",
        "lat": "21.38736309",
        "lng": "39.88115858",
        "user_type": "entity"
    },
    {
        "id": 584,
        "name": "مركز الخدمة 14085",
        "lat": "21.38954340",
        "lng": "39.87502705",
        "user_type": "entity"
    },
    {
        "id": 585,
        "name": "مركز الخدمة 8304",
        "lat": "21.38664381",
        "lng": "39.87881969",
        "user_type": "entity"
    },
    {
        "id": 586,
        "name": "مركز الخدمة 7993",
        "lat": "21.39028015",
        "lng": "39.88122295",
        "user_type": "entity"
    },
    {
        "id": 587,
        "name": "مركز الخدمة 11014",
        "lat": "21.38580464",
        "lng": "39.87510752",
        "user_type": "entity"
    },
    {
        "id": 588,
        "name": "مركز الخدمة 8420",
        "lat": "21.38802243",
        "lng": "39.87888407",
        "user_type": "entity"
    },
    {
        "id": 589,
        "name": "مركز الخدمة 7348",
        "lat": "21.38724321",
        "lng": "39.88124977",
        "user_type": "entity"
    },
    {
        "id": 590,
        "name": "مركز الخدمة 9611",
        "lat": "21.38544000",
        "lng": "39.87512897",
        "user_type": "entity"
    },
    {
        "id": 591,
        "name": "مركز الخدمة 4243",
        "lat": "21.38869176",
        "lng": "39.87672757",
        "user_type": "entity"
    },
    {
        "id": 592,
        "name": "مركز الخدمة 5596",
        "lat": "21.39263273",
        "lng": "39.88144826",
        "user_type": "entity"
    },
    {
        "id": 593,
        "name": "مركز الخدمة 6606",
        "lat": "21.38681364",
        "lng": "39.87895917",
        "user_type": "entity"
    },
    {
        "id": 594,
        "name": "مركز الخدمة 14642",
        "lat": "21.38686359",
        "lng": "39.87607311",
        "user_type": "entity"
    },
    {
        "id": 595,
        "name": "مركز الخدمة 4647",
        "lat": "21.38726319",
        "lng": "39.87674366",
        "user_type": "entity"
    },
    {
        "id": 596,
        "name": "مركز الخدمة 13832",
        "lat": "21.38744301",
        "lng": "39.88156628",
        "user_type": "entity"
    },
    {
        "id": 597,
        "name": "مركز الخدمة 5904",
        "lat": "21.38640155",
        "lng": "39.87909328",
        "user_type": "entity"
    },
    {
        "id": 598,
        "name": "مركز الخدمة 14878",
        "lat": "21.38939986",
        "lng": "39.87617986",
        "user_type": "entity"
    },
    {
        "id": 599,
        "name": "شركة إكرام الضيف للسياحة",
        "lat": "21.38928116",
        "lng": "39.87703871",
        "user_type": "entity"
    },
    {
        "id": 600,
        "name": "مركز الخدمة 8320",
        "lat": "21.39063978",
        "lng": "39.88182377",
        "user_type": "entity"
    },
    {
        "id": 601,
        "name": "مركز الخدمة 11976",
        "lat": "21.38680365",
        "lng": "39.87912010",
        "user_type": "entity"
    },
    {
        "id": 602,
        "name": "شركة طيران ناس شركة شخص واحد مساهمة مقفلة",
        "lat": "21.38928116",
        "lng": "39.87703871",
        "user_type": "entity"
    },
    {
        "id": 603,
        "name": "مركز الخدمة 13105",
        "lat": "21.38888157",
        "lng": "39.87622331",
        "user_type": "entity"
    },
    {
        "id": 604,
        "name": "مركز الخدمة 2210",
        "lat": "21.38958460",
        "lng": "39.88183718",
        "user_type": "entity"
    },
    {
        "id": 605,
        "name": "مركز الخدمة 8589",
        "lat": "21.38704341",
        "lng": "39.87918447",
        "user_type": "entity"
    },
    {
        "id": 606,
        "name": "شركة يسر المشاعر لخدمات الحجاج",
        "lat": "21.38928116",
        "lng": "39.87703871",
        "user_type": "entity"
    },
    {
        "id": 607,
        "name": "مركز الخدمة 13459",
        "lat": "21.38692603",
        "lng": "39.87639095",
        "user_type": "entity"
    },
    {
        "id": 608,
        "name": "مركز الخدمة 2033",
        "lat": "21.38750795",
        "lng": "39.88192033",
        "user_type": "entity"
    },
    {
        "id": 609,
        "name": "مركز الخدمة 5902",
        "lat": "21.38639406",
        "lng": "39.87932395",
        "user_type": "entity"
    },
    {
        "id": 610,
        "name": "مركز الخدمة 12716",
        "lat": "21.38539005",
        "lng": "39.87750005",
        "user_type": "entity"
    },
    {
        "id": 611,
        "name": "مركز الخدمة 12761",
        "lat": "21.38832213",
        "lng": "39.87652372",
        "user_type": "entity"
    },
    {
        "id": 612,
        "name": "مركز الخدمة 13286",
        "lat": "21.38952591",
        "lng": "39.88200079",
        "user_type": "entity"
    },
    {
        "id": 613,
        "name": "مركز الخدمة 7864",
        "lat": "21.38798247",
        "lng": "39.87942051",
        "user_type": "entity"
    },
    {
        "id": 614,
        "name": "مركز الخدمة 8283",
        "lat": "21.38796249",
        "lng": "39.87759661",
        "user_type": "entity"
    },
    {
        "id": 615,
        "name": "مركز الخدمة 15222",
        "lat": "21.38556877",
        "lng": "39.87654518",
        "user_type": "entity"
    },
    {
        "id": 616,
        "name": "مركز الخدمة 9436",
        "lat": "21.38735310",
        "lng": "39.88203834",
        "user_type": "entity"
    },
    {
        "id": 617,
        "name": "مركز الخدمة 7863",
        "lat": "21.38796749",
        "lng": "39.87952243",
        "user_type": "entity"
    },
    {
        "id": 618,
        "name": "مركز الخدمة 10441",
        "lat": "21.38822723",
        "lng": "39.87769853",
        "user_type": "entity"
    },
    {
        "id": 619,
        "name": "مركز الخدمة 7783",
        "lat": "21.38737808",
        "lng": "39.87671148",
        "user_type": "entity"
    },
    {
        "id": 620,
        "name": "مركز الخدمة 9507",
        "lat": "21.38917127",
        "lng": "39.88207053",
        "user_type": "entity"
    },
    {
        "id": 621,
        "name": "مركز الخدمة 5576",
        "lat": "21.38662383",
        "lng": "39.87772535",
        "user_type": "entity"
    },
    {
        "id": 622,
        "name": "مركز الخدمة 11864",
        "lat": "21.38600444",
        "lng": "39.87688850",
        "user_type": "entity"
    },
    {
        "id": 623,
        "name": "مركز الخدمة 7192",
        "lat": "21.38900144",
        "lng": "39.88211345",
        "user_type": "entity"
    },